$GNRMC,061722.40,A,3355.40246,N,11818.43249,W,1.312,,061021,,,"A*70
"
$GNRMC,061722.50,A,3355.40249,N,11818.43244,W,1.355,,061021,,,"A*70
"
$GNRMC,061722.80,A,3355.40253,N,11818.43235,W,1.300,,061021,,,"A*70
"
$GNRMC,061722.90,A,3355.40251,N,11818.43232,W,1.193,,061021,,,"A*7C
"
$GNRMC,061723.00,A,3355.40248,N,11818.43229,W,1.093,,061021,,,"A*77
"
$GNRMC,061723.10,A,3355.40249,N,11818.43224,W,1.111,,061021,,,"A*71
"
$GNRMC,061723.20,A,3355.40256,N,11818.43216,W,1.265,,061021,,,"A*7D
"
$GNRMC,061723.30,A,3355.40262,N,11818.43207,W,1.421,,061021,,,"A*7D
"
$GNRMC,061723.40,A,3355.40266,N,11818.43202,W,1.449,,061021,,,"A*75
"
$GNRMC,061723.50,A,3355.40267,N,11818.43205,W,1.271,,061021,,,"A*7F
"
$GNRMC,061723.60,A,3355.40267,N,11818.43207,W,1.119,,061021,,,"A*73
"
$GNRMC,061723.70,A,3355.40266,N,11818.43210,W,0.946,,061021,,,"A*76
"
$GNRMC,061723.80,A,3355.40266,N,11818.43214,W,0.772,,061021,,,"A*74
"
$GNRMC,061723.90,A,3355.40268,N,11818.43218,W,0.678,,061021,,,"A*7C
"
$GNRMC,061724.00,A,3355.40270,N,11818.43223,W,0.583,,061021,,,"A*74
"
$GNRMC,061724.10,A,3355.40271,N,11818.43227,W,0.512,,061021,,,"A*78
"
$GNRMC,061724.20,A,3355.40274,N,11818.43229,W,0.525,,061021,,,"A*74
"
$GNRMC,061724.30,A,3355.40277,N,11818.43230,W,0.574,,061021,,,"A*7A
"
$GNRMC,061724.40,A,3355.40279,N,11818.43230,W,0.610,,061021,,,"A*72
"
$GNRMC,061724.50,A,3355.40278,N,11818.43234,W,0.542,,061021,,,"A*72
"
$GNRMC,061724.60,A,3355.40276,N,11818.43238,W,0.518,,061021,,,"A*7C
"
$GNRMC,061724.70,A,3355.40268,N,11818.43241,W,0.330,,061021,,,"A*70
"
$GNRMC,061724.80,A,3355.40263,N,11818.43246,W,0.371,,061021,,,"A*76
"
$GNRMC,061724.90,A,3355.40257,N,11818.43248,W,0.426,,061021,,,"A*7B
"
$GNRMC,061725.00,A,3355.40254,N,11818.43248,W,0.475,,061021,,,"A*76
"
$GNRMC,061725.10,A,3355.40249,N,11818.43248,W,0.540,,061021,,,"A*7C
"
$GNRMC,061725.20,A,3355.40246,N,11818.43249,W,0.593,,061021,,,"A*7F
"
$GNRMC,061725.30,A,3355.40245,N,11818.43249,W,0.582,,061021,,,"A*7D
"
$GNRMC,061725.40,A,3355.40247,N,11818.43248,W,0.481,,061021,,,"A*7B
"
$GNRMC,061725.50,A,3355.40247,N,11818.43249,W,0.550,,061021,,,"A*76
"
$GNRMC,061725.60,A,3355.40252,N,11818.43252,W,0.425,,061021,,,"A*78
"
$GNRMC,061725.70,A,3355.40247,N,11818.43249,W,0.484,,061021,,,"A*7C
"
$GNRMC,061725.80,A,3355.40247,N,11818.43249,W,0.463,,061021,,,"A*7A
"
$GNRMC,061725.90,A,3355.40250,N,11818.43242,W,0.282,,061021,,,"A*7F
"
$GNRMC,061726.00,A,3355.40246,N,11818.43241,W,0.389,,061021,,,"A*7B
"
$GNRMC,061726.10,A,3355.40238,N,11818.43248,W,0.629,,061021,,,"A*75
"
$GNRMC,061726.20,A,3355.40235,N,11818.43255,W,0.762,,061021,,,"A*79
"
$GNRMC,061726.30,A,3355.40232,N,11818.43265,W,0.961,,061021,,,"A*71
"
$GNRMC,061726.40,A,3355.40231,N,11818.43275,W,1.107,,061021,,,"A*7D
"
$GNRMC,061726.50,A,3355.40234,N,11818.43279,W,1.063,,061021,,,"A*76
"
$GNRMC,061726.60,A,3355.40228,N,11818.43279,W,1.106,,061021,,,"A*7A
"
$GNRMC,061726.70,A,3355.40223,N,11818.43266,W,0.935,,061021,,,"A*77
"
$GNRMC,061726.80,A,3355.40213,N,11818.43259,W,1.109,,061021,,,"A*71
"
$GNRMC,061726.90,A,3355.40213,N,11818.43245,W,1.019,,061021,,,"A*7D
"
$GNRMC,061727.00,A,3355.40226,N,11818.43245,W,0.442,,061021,,,"A*78
"
$GNRMC,061727.10,A,3355.40234,N,11818.43256,W,0.320,,061021,,,"A*7B
"
$GNRMC,061727.20,A,3355.40233,N,11818.43252,W,0.245,,061021,,,"A*79
"
$GNRMC,061727.30,A,3355.40231,N,11818.43251,W,0.239,,061021,,,"A*72
"
$GNRMC,061727.40,A,3355.40229,N,11818.43255,W,0.383,,061021,,,"A*78
"
$GNRMC,061727.50,A,3355.40231,N,11818.43256,W,0.401,,061021,,,"A*7E
"
$GNRMC,061727.60,A,3355.40235,N,11818.43253,W,0.402,,061021,,,"A*7F
"
$GNRMC,061727.70,A,3355.40238,N,11818.43250,W,0.339,,061021,,,"A*7F
"
$GNRMC,061727.80,A,3355.40235,N,11818.43246,W,0.198,,061021,,,"A*73
"
$GNRMC,061727.90,A,3355.40234,N,11818.43235,W,0.161,,061021,,,"A*71
"
$GNRMC,061728.00,A,3355.40230,N,11818.43228,W,0.332,,061021,,,"A*7B
"
$GNRMC,061728.10,A,3355.40225,N,11818.43227,W,0.412,,061021,,,"A*74
"
$GNRMC,061728.20,A,3355.40224,N,11818.43223,W,0.442,,061021,,,"A*77
"
$GNRMC,061728.30,A,3355.40224,N,11818.43223,W,0.390,,061021,,,"A*7E
"
$GNRMC,061728.40,A,3355.40215,N,11818.43226,W,0.393,,061021,,,"A*7D
"
$GNRMC,061728.50,A,3355.40210,N,11818.43227,W,0.521,,061021,,,"A*77
"
$GNRMC,061728.60,A,3355.40215,N,11818.43223,W,0.381,,061021,,,"A*79
"
$GNRMC,061728.70,A,3355.40226,N,11818.43223,W,0.159,,061021,,,"A*7F
"
$GNRMC,061728.80,A,3355.40228,N,11818.43226,W,0.082,,061021,,,"A*7C
"
$GNRMC,061728.90,A,3355.40230,N,11818.43231,W,0.178,,061021,,,"A*76
"
$GNRMC,061729.00,A,3355.40233,N,11818.43234,W,0.395,,061021,,,"A*79
"
$GNRMC,061729.10,A,3355.40235,N,11818.43239,W,0.443,,061021,,,"A*7F
"
$GNRMC,061729.20,A,3355.40238,N,11818.43244,W,0.592,,061021,,,"A*76
"
$GNRMC,061729.30,A,3355.40238,N,11818.43258,W,0.889,,061021,,,"A*7D
"
$GNRMC,061729.40,A,3355.40240,N,11818.43264,W,1.049,,061021,,,"A*7F
"
$GNRMC,061729.50,A,3355.40242,N,11818.43279,W,1.418,,061021,,,"A*70
"
$GNRMC,061729.60,A,3355.40243,N,11818.43288,W,1.551,,061021,,,"A*70
"
$GNRMC,061729.70,A,3355.40246,N,11818.43297,W,1.641,,061021,,,"A*78
"
$GNRMC,061729.80,A,3355.40253,N,11818.43308,W,1.877,218.20,061021,,,"A*68
"
$GNRMC,061729.90,A,3355.40258,N,11818.43320,W,2.112,256.64,061021,,,"A*6B
"
$GNRMC,061730.00,A,3355.40266,N,11818.43337,W,2.632,278.97,061021,,,"A*64
"
$GNRMC,061730.10,A,3355.40264,N,11818.43352,W,2.679,282.90,061021,,,"A*69
"
$GNRMC,061730.20,A,3355.40263,N,11818.43366,W,2.763,282.19,061021,,,"A*61
"
$GNRMC,061730.30,A,3355.40252,N,11818.43363,W,2.282,276.61,061021,,,"A*69
"
$GNRMC,061730.40,A,3355.40248,N,11818.43366,W,2.153,270.92,061021,,,"A*65
"
$GNRMC,061730.50,A,3355.40247,N,11818.43367,W,2.015,267.48,061021,,,"A*68
"
$GNRMC,061730.60,A,3355.40248,N,11818.43372,W,1.991,265.98,061021,,,"A*69
"
$GNRMC,061730.70,A,3355.40245,N,11818.43368,W,1.733,,061021,,,"A*76
"
$GNRMC,061730.80,A,3355.40244,N,11818.43361,W,1.424,,061021,,,"A*74
"
$GNRMC,061730.90,A,3355.40248,N,11818.43361,W,1.324,,061021,,,"A*7E
"
$GNRMC,061731.00,A,3355.40250,N,11818.43361,W,1.265,,061021,,,"A*7B
"
$GNRMC,061731.10,A,3355.40251,N,11818.43359,W,1.110,,061021,,,"A*71
"
$GNRMC,061731.20,A,3355.40246,N,11818.43352,W,0.841,,061021,,,"A*73
"
$GNRMC,061731.30,A,3355.40244,N,11818.43349,W,0.733,,061021,,,"A*70
"
$GNRMC,061731.40,A,3355.40245,N,11818.43352,W,0.753,,061021,,,"A*7A
"
$GNRMC,061731.50,A,3355.40248,N,11818.43356,W,0.754,,061021,,,"A*75
"
$GNRMC,061731.60,A,3355.40251,N,11818.43356,W,0.684,,061021,,,"A*72
"
$GNRMC,061731.70,A,3355.40254,N,11818.43353,W,0.550,,061021,,,"A*79
"
$GNRMC,061731.80,A,3355.40260,N,11818.43345,W,0.366,,061021,,,"A*75
"
$GNRMC,061731.90,A,3355.40267,N,11818.43349,W,0.514,,061021,,,"A*7C
"
$GNRMC,061732.00,A,3355.40278,N,11818.43356,W,0.769,,061021,,,"A*7E
"
$GNRMC,061732.10,A,3355.40290,N,11818.43364,W,1.082,,061021,,,"A*7B
"
$GNRMC,061732.20,A,3355.40297,N,11818.43370,W,1.232,,061021,,,"A*73
"
$GNRMC,061732.30,A,3355.40302,N,11818.43377,W,1.339,,061021,,,"A*72
"
$GNRMC,061732.40,A,3355.40304,N,11818.43386,W,1.359,,061021,,,"A*7B
"
$GNRMC,061732.50,A,3355.40306,N,11818.43395,W,1.377,,061021,,,"A*76
"
$GNRMC,061732.60,A,3355.40310,N,11818.43404,W,1.428,,061021,,,"A*70
"
$GNRMC,061732.70,A,3355.40315,N,11818.43411,W,1.447,,061021,,,"A*79
"
$GNRMC,061732.80,A,3355.40314,N,11818.43414,W,1.369,,061021,,,"A*79
"
$GNRMC,061732.90,A,3355.40316,N,11818.43415,W,1.373,,061021,,,"A*70
"
$GNRMC,061733.00,A,3355.40314,N,11818.43417,W,1.306,,061021,,,"A*7A
"
$GNRMC,061733.10,A,3355.40312,N,11818.43416,W,1.217,,061021,,,"A*7D
"
$GNRMC,061733.20,A,3355.40310,N,11818.43413,W,1.099,,061021,,,"A*7D
"
$GNRMC,061733.30,A,3355.40311,N,11818.43418,W,1.152,,061021,,,"A*70
"
$GNRMC,061733.40,A,3355.40307,N,11818.43421,W,1.095,,061021,,,"A*70
"
$GNRMC,061733.50,A,3355.40304,N,11818.43423,W,1.065,,061021,,,"A*7F
"
$GNRMC,061733.60,A,3355.40302,N,11818.43422,W,0.950,,061021,,,"A*75
"
$GNRMC,061733.70,A,3355.40299,N,11818.43419,W,0.794,,061021,,,"A*79
"
$GNRMC,061733.80,A,3355.40295,N,11818.43415,W,0.684,,061021,,,"A*76
"
$GNRMC,061733.90,A,3355.40289,N,11818.43414,W,0.712,,061021,,,"A*75
"
$GNRMC,061734.00,A,3355.40284,N,11818.43416,W,0.794,,061021,,,"A*7A
"
$GNRMC,061734.10,A,3355.40279,N,11818.43420,W,0.939,,061021,,,"A*75
"
$GNRMC,061734.20,A,3355.40265,N,11818.43428,W,1.149,,061021,,,"A*7D
"
$GNRMC,061734.30,A,3355.40264,N,11818.43430,W,1.137,,061021,,,"A*7D
"
$GNRMC,061734.40,A,3355.40261,N,11818.43425,W,1.046,,061021,,,"A*7C
"
$GNRMC,061734.50,A,3355.40257,N,11818.43414,W,0.935,,061021,,,"A*76
"
$GNRMC,061734.60,A,3355.40258,N,11818.43412,W,0.811,,061021,,,"A*7B
"
$GNRMC,061734.70,A,3355.40256,N,11818.43418,W,0.868,,061021,,,"A*70
"
$GNRMC,061734.80,A,3355.40255,N,11818.43410,W,0.729,,061021,,,"A*7E
"
$GNRMC,061734.90,A,3355.40259,N,11818.43407,W,0.547,,061021,,,"A*7F
"
$GNRMC,061735.00,A,3355.40268,N,11818.43400,W,0.232,,061021,,,"A*77
"
$GNRMC,061735.10,A,3355.40276,N,11818.43398,W,0.160,,061021,,,"A*7B
"
$GNRMC,061735.20,A,3355.40275,N,11818.43393,W,0.011,,061021,,,"A*77
"
$GNRMC,061735.30,A,3355.40275,N,11818.43383,W,0.258,,061021,,,"A*78
"
$GNRMC,061735.40,A,3355.40276,N,11818.43379,W,0.314,,061021,,,"A*70
"
$GNRMC,061735.50,A,3355.40276,N,11818.43375,W,0.388,,061021,,,"A*78
"
$GNRMC,061735.60,A,3355.40271,N,11818.43363,W,0.718,,061021,,,"A*76
"
$GNRMC,061735.70,A,3355.40273,N,11818.43363,W,0.615,,061021,,,"A*79
"
$GNRMC,061735.80,A,3355.40278,N,11818.43359,W,0.646,,061021,,,"A*72
"
$GNRMC,061735.90,A,3355.40288,N,11818.43350,W,0.839,,061021,,,"A*73
"
$GNRMC,061736.00,A,3355.40301,N,11818.43335,W,1.208,,061021,,,"A*73
"
$GNRMC,061736.10,A,3355.40308,N,11818.43323,W,1.428,,061021,,,"A*78
"
$GNRMC,061736.20,A,3355.40307,N,11818.43317,W,1.412,,061021,,,"A*7A
"
$GNRMC,061736.30,A,3355.40305,N,11818.43321,W,1.178,,061021,,,"A*75
"
$GNRMC,061736.40,A,3355.40299,N,11818.43330,W,0.814,,061021,,,"A*74
"
$GNRMC,061736.50,A,3355.40292,N,11818.43341,W,0.398,,061021,,,"A*77
"
$GNRMC,061736.60,A,3355.40287,N,11818.43352,W,0.076,,061021,,,"A*71
"
$GNRMC,061736.70,A,3355.40284,N,11818.43356,W,0.125,,061021,,,"A*70
"
$GNRMC,061736.80,A,3355.40281,N,11818.43356,W,0.179,,061021,,,"A*73
"
$GNRMC,061736.90,A,3355.40276,N,11818.43358,W,0.316,,061021,,,"A*7F
"
$GNRMC,061737.00,A,3355.40274,N,11818.43360,W,0.393,,061021,,,"A*73
"
$GNRMC,061737.10,A,3355.40273,N,11818.43361,W,0.379,,061021,,,"A*70
"
$GNRMC,061737.20,A,3355.40269,N,11818.43364,W,0.495,,061021,,,"A*78
"
$GNRMC,061737.30,A,3355.40265,N,11818.43366,W,0.612,,061021,,,"A*7A
"
$GNRMC,061737.40,A,3355.40260,N,11818.43368,W,0.704,,061021,,,"A*70
"
$GNRMC,061737.50,A,3355.40255,N,11818.43369,W,0.773,,061021,,,"A*76
"
$GNRMC,061737.60,A,3355.40251,N,11818.43366,W,0.773,,061021,,,"A*7E
"
$GNRMC,061737.70,A,3355.40245,N,11818.43362,W,0.801,,061021,,,"A*74
"
$GNRMC,061737.80,A,3355.40246,N,11818.43357,W,0.641,,061021,,,"A*74
"
$GNRMC,061737.90,A,3355.40251,N,11818.43355,W,0.439,,061021,,,"A*7C
"
$GNRMC,061738.00,A,3355.40256,N,11818.43352,W,0.276,,061021,,,"A*77
"
$GNRMC,061738.10,A,3355.40266,N,11818.43349,W,0.047,,061021,,,"A*7F
"
$GNRMC,061738.20,A,3355.40262,N,11818.43342,W,0.130,,061021,,,"A*72
"
$GNRMC,061738.30,A,3355.40258,N,11818.43337,W,0.242,,061021,,,"A*7E
"
$GNRMC,061738.40,A,3355.40254,N,11818.43333,W,0.362,,061021,,,"A*72
"
$GNRMC,061738.50,A,3355.40247,N,11818.43332,W,0.519,,061021,,,"A*7A
"
$GNRMC,061738.60,A,3355.40243,N,11818.43334,W,0.554,,061021,,,"A*72
"
$GNRMC,061738.70,A,3355.40240,N,11818.43338,W,0.615,,061021,,,"A*7A
"
$GNRMC,061738.80,A,3355.40240,N,11818.43338,W,0.547,,061021,,,"A*71
"
$GNRMC,061738.90,A,3355.40242,N,11818.43337,W,0.434,,061021,,,"A*78
"
$GNRMC,061739.00,A,3355.40245,N,11818.43335,W,0.284,,061021,,,"A*78
"
$GNRMC,061739.10,A,3355.40249,N,11818.43330,W,0.136,,061021,,,"A*7A
"
$GNRMC,061739.20,A,3355.40255,N,11818.43329,W,0.019,,061021,,,"A*70
"
$GNRMC,061739.30,A,3355.40264,N,11818.43326,W,0.269,,061021,,,"A*79
"
$GNRMC,061739.40,A,3355.40270,N,11818.43319,W,0.449,,061021,,,"A*73
"
$GNRMC,061739.50,A,3355.40276,N,11818.43318,W,0.525,,061021,,,"A*7E
"
$GNRMC,061739.60,A,3355.40276,N,11818.43314,W,0.517,,061021,,,"A*70
"
$GNRMC,061739.70,A,3355.40277,N,11818.43309,W,0.595,,061021,,,"A*76
"
$GNRMC,061739.80,A,3355.40277,N,11818.43309,W,0.548,,061021,,,"A*79
"
$GNRMC,061739.90,A,3355.40278,N,11818.43314,W,0.502,,061021,,,"A*75
"
$GNRMC,061740.00,A,3355.40280,N,11818.43316,W,0.506,,061021,,,"A*73
"
$GNRMC,061740.10,A,3355.40277,N,11818.43318,W,0.396,,061021,,,"A*7B
"
$GNRMC,061740.20,A,3355.40271,N,11818.43321,W,0.200,,061021,,,"A*7A
"
$GNRMC,061740.30,A,3355.40270,N,11818.43322,W,0.249,,061021,,,"A*74
"
$GNRMC,061740.40,A,3355.40274,N,11818.43322,W,0.442,,061021,,,"A*7A
"
$GNRMC,061740.50,A,3355.40276,N,11818.43325,W,0.535,,061021,,,"A*7F
"
$GNRMC,061740.60,A,3355.40276,N,11818.43329,W,0.536,,061021,,,"A*73
"
$GNRMC,061740.70,A,3355.40278,N,11818.43330,W,0.584,,061021,,,"A*7D
"
$GNRMC,061740.80,A,3355.40276,N,11818.43332,W,0.551,,061021,,,"A*76
"
$GNRMC,061740.90,A,3355.40271,N,11818.43335,W,0.573,,061021,,,"A*77
"
$GNRMC,061741.00,A,3355.40268,N,11818.43338,W,0.657,,061021,,,"A*7F
"
$GNRMC,061741.10,A,3355.40268,N,11818.43346,W,0.867,,061021,,,"A*7A
"
$GNRMC,061741.20,A,3355.40270,N,11818.43353,W,1.065,,061021,,,"A*7F
"
$GNRMC,061741.30,A,3355.40270,N,11818.43364,W,1.407,,061021,,,"A*7A
"
$GNRMC,061741.40,A,3355.40269,N,11818.43374,W,1.584,,061021,,,"A*7E
"
$GNRMC,061741.50,A,3355.40264,N,11818.43380,W,1.622,,061021,,,"A*76
"
$GNRMC,061741.60,A,3355.40262,N,11818.43380,W,1.494,,061021,,,"A*7C
"
$GNRMC,061741.70,A,3355.40260,N,11818.43376,W,1.267,,061021,,,"A*7C
"
$GNRMC,061741.80,A,3355.40255,N,11818.43366,W,0.913,,061021,,,"A*7D
"
$GNRMC,061741.90,A,3355.40259,N,11818.43352,W,0.410,,061021,,,"A*79
"
$GNRMC,061742.00,A,3355.40261,N,11818.43340,W,0.180,,061021,,,"A*77
"
$GNRMC,061742.10,A,3355.40265,N,11818.43334,W,0.203,,061021,,,"A*79
"
$GNRMC,061742.20,A,3355.40268,N,11818.43337,W,0.134,,061021,,,"A*73
"
$GNRMC,061742.30,A,3355.40262,N,11818.43336,W,0.379,,061021,,,"A*72
"
$GNRMC,061742.40,A,3355.40256,N,11818.43336,W,0.555,,061021,,,"A*7A
"
$GNRMC,061742.50,A,3355.40251,N,11818.43334,W,0.664,,061021,,,"A*7F
"
$GNRMC,061742.60,A,3355.40238,N,11818.43325,W,0.965,,061021,,,"A*7D
"
$GNRMC,061742.70,A,3355.40230,N,11818.43322,W,1.068,,061021,,,"A*76
"
$GNRMC,061742.80,A,3355.40221,N,11818.43322,W,1.194,,061021,,,"A*7B
"
$GNRMC,061742.90,A,3355.40214,N,11818.43321,W,1.256,,061021,,,"A*72
"
$GNRMC,061743.00,A,3355.40212,N,11818.43322,W,1.244,,061021,,,"A*7C
"
$GNRMC,061743.10,A,3355.40214,N,11818.43328,W,1.062,,061021,,,"A*77
"
$GNRMC,061743.20,A,3355.40221,N,11818.43330,W,0.746,,061021,,,"A*7B
"
$GNRMC,061743.30,A,3355.40225,N,11818.43330,W,0.574,,061021,,,"A*7D
"
$GNRMC,061743.40,A,3355.40228,N,11818.43333,W,0.461,,061021,,,"A*71
"
$GNRMC,061743.50,A,3355.40232,N,11818.43335,W,0.403,,061021,,,"A*79
"
$GNRMC,061743.60,A,3355.40234,N,11818.43338,W,0.418,,061021,,,"A*7B
"
$GNRMC,061743.70,A,3355.40234,N,11818.43339,W,0.418,,061021,,,"A*7B
"
$GNRMC,061743.80,A,3355.40237,N,11818.43337,W,0.287,,061021,,,"A*79
"
$GNRMC,061743.90,A,3355.40230,N,11818.43337,W,0.414,,061021,,,"A*73
"
$GNRMC,061744.00,A,3355.40223,N,11818.43340,W,0.552,,061021,,,"A*7C
"
$GNRMC,061744.10,A,3355.40217,N,11818.43343,W,0.651,,061021,,,"A*79
"
$GNRMC,061744.20,A,3355.40215,N,11818.43342,W,0.603,,061021,,,"A*7E
"
$GNRMC,061744.30,A,3355.40212,N,11818.43339,W,0.530,,061021,,,"A*77
"
$GNRMC,061744.40,A,3355.40209,N,11818.43333,W,0.532,,061021,,,"A*72
"
$GNRMC,061744.50,A,3355.40203,N,11818.43328,W,0.654,,061021,,,"A*70
"
$GNRMC,061744.60,A,3355.40197,N,11818.43323,W,0.776,,061021,,,"A*77
"
$GNRMC,061744.70,A,3355.40193,N,11818.43315,W,0.911,,061021,,,"A*78
"
$GNRMC,061744.80,A,3355.40190,N,11818.43313,W,0.875,,061021,,,"A*71
"
$GNRMC,061744.90,A,3355.40184,N,11818.43311,W,0.937,,061021,,,"A*70
"
$GNRMC,061745.00,A,3355.40180,N,11818.43309,W,0.906,,061021,,,"A*77
"
$GNRMC,061745.10,A,3355.40178,N,11818.43308,W,0.799,,061021,,,"A*78
"
$GNRMC,061745.20,A,3355.40174,N,11818.43307,W,0.824,,061021,,,"A*71
"
$GNRMC,061745.30,A,3355.40173,N,11818.43310,W,0.732,,061021,,,"A*79
"
$GNRMC,061745.40,A,3355.40169,N,11818.43309,W,0.787,,061021,,,"A*73
"
$GNRMC,061745.50,A,3355.40165,N,11818.43309,W,0.810,,061021,,,"A*7F
"
$GNRMC,061745.60,A,3355.40160,N,11818.43307,W,0.865,,061021,,,"A*75
"
$GNRMC,061745.70,A,3355.40156,N,11818.43308,W,0.884,,061021,,,"A*71
"
$GNRMC,061745.80,A,3355.40142,N,11818.43306,W,1.082,,061021,,,"A*7A
"
$GNRMC,061745.90,A,3355.40135,N,11818.43312,W,1.173,,061021,,,"A*71
"
$GNRMC,061746.00,A,3355.40128,N,11818.43318,W,1.292,,061021,,,"A*71
"
$GNRMC,061746.10,A,3355.40122,N,11818.43325,W,1.365,,061021,,,"A*7D
"
$GNRMC,061746.20,A,3355.40123,N,11818.43331,W,1.285,,061021,,,"A*75
"
$GNRMC,061746.30,A,3355.40124,N,11818.43337,W,1.240,,061021,,,"A*7C
"
$GNRMC,061746.40,A,3355.40125,N,11818.43340,W,1.153,,061021,,,"A*7B
"
$GNRMC,061746.50,A,3355.40127,N,11818.43338,W,0.977,,061021,,,"A*78
"
$GNRMC,061746.60,A,3355.40130,N,11818.43333,W,0.675,,061021,,,"A*7B
"
$GNRMC,061746.70,A,3355.40131,N,11818.43331,W,0.540,,061021,,,"A*7C
"
$GNRMC,061746.80,A,3355.40125,N,11818.43327,W,0.604,,061021,,,"A*72
"
$GNRMC,061746.90,A,3355.40118,N,11818.43323,W,0.775,,061021,,,"A*7E
"
$GNRMC,061747.00,A,3355.40110,N,11818.43316,W,0.996,,061021,,,"A*7B
"
$GNRMC,061747.10,A,3355.40100,N,11818.43313,W,1.264,,061021,,,"A*79
"
$GNRMC,061747.20,A,3355.40096,N,11818.43316,W,1.230,,061021,,,"A*70
"
$GNRMC,061747.30,A,3355.40092,N,11818.43319,W,1.228,,061021,,,"A*73
"
$GNRMC,061747.40,A,3355.40090,N,11818.43322,W,1.189,,061021,,,"A*76
"
$GNRMC,061747.50,A,3355.40085,N,11818.43320,W,1.303,,061021,,,"A*71
"
$GNRMC,061747.60,A,3355.40077,N,11818.43322,W,1.468,,061021,,,"A*77
"
$GNRMC,061747.70,A,3355.40067,N,11818.43324,W,1.631,,061021,,,"A*7F
"
$GNRMC,061747.80,A,3355.40058,N,11818.43321,W,1.773,222.04,061021,,,"A*66
"
$GNRMC,061747.90,A,3355.40048,N,11818.43319,W,1.936,195.39,061021,,,"A*63
"
$GNRMC,061748.00,A,3355.40041,N,11818.43316,W,1.968,182.89,061021,,,"A*65
"
$GNRMC,061748.10,A,3355.40037,N,11818.43312,W,1.943,175.06,061021,,,"A*67
"
$GNRMC,061748.20,A,3355.40025,N,11818.43310,W,2.122,171.11,061021,,,"A*6B
"
$GNRMC,061748.30,A,3355.40014,N,11818.43312,W,2.250,171.11,061021,,,"A*6C
"
$GNRMC,061748.40,A,3355.40003,N,11818.43314,W,2.385,172.69,061021,,,"A*6E
"
$GNRMC,061748.50,A,3355.40001,N,11818.43317,W,2.266,174.55,061021,,,"A*6B
"
$GNRMC,061748.60,A,3355.40002,N,11818.43322,W,2.076,177.29,061021,,,"A*66
"
$GNRMC,061748.70,A,3355.40006,N,11818.43323,W,1.833,179.47,061021,,,"A*6E
"
$GNRMC,061748.80,A,3355.40011,N,11818.43327,W,1.609,,061021,,,"A*76
"
$GNRMC,061748.90,A,3355.40015,N,11818.43328,W,1.397,,061021,,,"A*7E
"
$GNRMC,061749.00,A,3355.40018,N,11818.43327,W,1.174,,061021,,,"A*7B
"
$GNRMC,061749.10,A,3355.40024,N,11818.43325,W,0.908,,061021,,,"A*75
"
$GNRMC,061749.20,A,3355.40031,N,11818.43321,W,0.673,,061021,,,"A*75
"
$GNRMC,061749.30,A,3355.40039,N,11818.43317,W,0.506,,061021,,,"A*78
"
$GNRMC,061749.40,A,3355.40046,N,11818.43315,W,0.415,,061021,,,"A*76
"
$GNRMC,061749.50,A,3355.40052,N,11818.43316,W,0.297,,061021,,,"A*7D
"
$GNRMC,061749.60,A,3355.40052,N,11818.43321,W,0.127,,061021,,,"A*72
"
$GNRMC,061749.70,A,3355.40052,N,11818.43325,W,0.015,,061021,,,"A*77
"
$GNRMC,061749.80,A,3355.40050,N,11818.43325,W,0.047,,061021,,,"A*7D
"
$GNRMC,061749.90,A,3355.40048,N,11818.43327,W,0.106,,061021,,,"A*73
"
$GNRMC,061750.00,A,3355.40045,N,11818.43328,W,0.187,,061021,,,"A*79
"
$GNRMC,061750.10,A,3355.40042,N,11818.43326,W,0.270,,061021,,,"A*7A
"
$GNRMC,061750.20,A,3355.40039,N,11818.43322,W,0.442,,061021,,,"A*76
"
$GNRMC,061750.30,A,3355.40040,N,11818.43322,W,0.339,,061021,,,"A*72
"
$GNRMC,061750.40,A,3355.40042,N,11818.43322,W,0.185,,061021,,,"A*72
"
$GNRMC,061750.50,A,3355.40043,N,11818.43325,W,0.119,,061021,,,"A*70
"
$GNRMC,061750.60,A,3355.40044,N,11818.43328,W,0.083,,061021,,,"A*7B
"
$GNRMC,061750.70,A,3355.40043,N,11818.43331,W,0.173,,061021,,,"A*7B
"
$GNRMC,061750.80,A,3355.40042,N,11818.43335,W,0.269,,061021,,,"A*79
"
$GNRMC,061750.90,A,3355.40040,N,11818.43341,W,0.436,,061021,,,"A*75
"
$GNRMC,061751.00,A,3355.40043,N,11818.43343,W,0.385,,061021,,,"A*73
"
$GNRMC,061751.10,A,3355.40046,N,11818.43344,W,0.361,,061021,,,"A*7A
"
$GNRMC,061751.20,A,3355.40045,N,11818.43346,W,0.376,,061021,,,"A*7E
"
$GNRMC,061751.30,A,3355.40045,N,11818.43347,W,0.361,,061021,,,"A*78
"
$GNRMC,061751.40,A,3355.40044,N,11818.43352,W,0.472,,061021,,,"A*7F
"
$GNRMC,061751.50,A,3355.40038,N,11818.43357,W,0.660,,061021,,,"A*71
"
$GNRMC,061751.60,A,3355.40035,N,11818.43360,W,0.811,,061021,,,"A*73
"
$GNRMC,061751.70,A,3355.40030,N,11818.43365,W,0.995,,061021,,,"A*7F
"
$GNRMC,061751.80,A,3355.40028,N,11818.43371,W,1.079,,061021,,,"A*76
"
$GNRMC,061751.90,A,3355.40027,N,11818.43370,W,1.044,,061021,,,"A*77
"
$GNRMC,061752.00,A,3355.40027,N,11818.43369,W,0.910,,061021,,,"A*7C
"
$GNRMC,061752.10,A,3355.40029,N,11818.43368,W,0.774,,061021,,,"A*7E
"
$GNRMC,061752.20,A,3355.40026,N,11818.43368,W,0.776,,061021,,,"A*70
"
$GNRMC,061752.30,A,3355.40025,N,11818.43367,W,0.704,,061021,,,"A*78
"
$GNRMC,061752.40,A,3355.40023,N,11818.43363,W,0.643,,061021,,,"A*7F
"
$GNRMC,061752.50,A,3355.40021,N,11818.43357,W,0.637,,061021,,,"A*78
"
$GNRMC,061752.60,A,3355.40024,N,11818.43349,W,0.576,,061021,,,"A*77
"
$GNRMC,061752.70,A,3355.40027,N,11818.43339,W,0.722,,061021,,,"A*71
"
$GNRMC,061752.80,A,3355.40024,N,11818.43338,W,0.773,,061021,,,"A*78
"
$GNRMC,061752.90,A,3355.40022,N,11818.43343,W,0.617,,061021,,,"A*70
"
$GNRMC,061753.00,A,3355.40017,N,11818.43352,W,0.564,,061021,,,"A*79
"
$GNRMC,061753.10,A,3355.40015,N,11818.43357,W,0.603,,061021,,,"A*7D
"
$GNRMC,061753.20,A,3355.40017,N,11818.43358,W,0.542,,061021,,,"A*75
"
$GNRMC,061753.30,A,3355.40011,N,11818.43353,W,0.682,,061021,,,"A*76
"
$GNRMC,061753.40,A,3355.40005,N,11818.43353,W,0.857,,061021,,,"A*72
"
$GNRMC,061753.50,A,3355.40000,N,11818.43357,W,0.955,,061021,,,"A*71
"
$GNRMC,061753.60,A,3355.39998,N,11818.43368,W,0.983,,061021,,,"A*73
"
$GNRMC,061753.70,A,3355.39997,N,11818.43375,W,1.024,,061021,,,"A*74
"
$GNRMC,061753.80,A,3355.39995,N,11818.43379,W,1.050,,061021,,,"A*76
"
$GNRMC,061753.90,A,3355.39990,N,11818.43383,W,1.167,,061021,,,"A*72
"
$GNRMC,061754.00,A,3355.39985,N,11818.43386,W,1.248,,061021,,,"A*73
"
$GNRMC,061754.10,A,3355.39981,N,11818.43385,W,1.233,,061021,,,"A*79
"
$GNRMC,061754.20,A,3355.39976,N,11818.43379,W,1.146,,061021,,,"A*70
"
$GNRMC,061754.30,A,3355.39973,N,11818.43374,W,1.027,,061021,,,"A*7F
"
$GNRMC,061754.40,A,3355.39970,N,11818.43369,W,0.986,,061021,,,"A*74
"
$GNRMC,061754.50,A,3355.39977,N,11818.43363,W,0.848,,061021,,,"A*7B
"
$GNRMC,061754.60,A,3355.39979,N,11818.43366,W,0.744,,061021,,,"A*70
"
$GNRMC,061754.70,A,3355.39983,N,11818.43372,W,0.633,,061021,,,"A*70
"
$GNRMC,061754.80,A,3355.39986,N,11818.43378,W,0.634,,061021,,,"A*77
"
$GNRMC,061754.90,A,3355.39991,N,11818.43382,W,0.625,,061021,,,"A*75
"
$GNRMC,061755.00,A,3355.39995,N,11818.43385,W,0.678,,061021,,,"A*76
"
$GNRMC,061755.10,A,3355.39992,N,11818.43390,W,0.770,,061021,,,"A*7D
"
$GNRMC,061755.20,A,3355.39990,N,11818.43394,W,0.848,,061021,,,"A*7C
"
$GNRMC,061755.30,A,3355.39988,N,11818.43390,W,0.659,,061021,,,"A*7E
"
$GNRMC,061755.40,A,3355.39985,N,11818.43385,W,0.474,,061021,,,"A*7D
"
$GNRMC,061755.50,A,3355.39982,N,11818.43377,W,0.214,,061021,,,"A*76
"
$GNRMC,061755.60,A,3355.39979,N,11818.43375,W,0.207,,061021,,,"A*71
"
$GNRMC,061755.70,A,3355.39978,N,11818.43376,W,0.199,,061021,,,"A*76
"
$GNRMC,061755.80,A,3355.39977,N,11818.43377,W,0.200,,061021,,,"A*74
"
$GNRMC,061755.90,A,3355.39977,N,11818.43386,W,0.431,,061021,,,"A*7F
"
$GNRMC,061756.00,A,3355.39979,N,11818.43391,W,0.527,,061021,,,"A*7B
"
$GNRMC,061756.10,A,3355.39983,N,11818.43394,W,0.599,,061021,,,"A*7F
"
$GNRMC,061756.20,A,3355.39981,N,11818.43397,W,0.612,,061021,,,"A*7D
"
$GNRMC,061756.30,A,3355.39976,N,11818.43396,W,0.538,,061021,,,"A*7E
"
$GNRMC,061756.40,A,3355.39970,N,11818.43392,W,0.506,,061021,,,"A*76
"
$GNRMC,061756.50,A,3355.39967,N,11818.43388,W,0.487,,061021,,,"A*72
"
$GNRMC,061756.60,A,3355.39960,N,11818.43381,W,0.652,,061021,,,"A*75
"
$GNRMC,061756.70,A,3355.39950,N,11818.43377,W,0.941,,061021,,,"A*73
"
$GNRMC,061756.80,A,3355.39940,N,11818.43373,W,1.217,,061021,,,"A*70
"
$GNRMC,061756.90,A,3355.39931,N,11818.43374,W,1.374,,061021,,,"A*74
"
$GNRMC,061757.00,A,3355.39930,N,11818.43372,W,1.281,,061021,,,"A*70
"
$GNRMC,061757.10,A,3355.39929,N,11818.43372,W,1.236,,061021,,,"A*75
"
$GNRMC,061757.20,A,3355.39928,N,11818.43379,W,1.186,,061021,,,"A*74
"
$GNRMC,061757.30,A,3355.39927,N,11818.43387,W,1.148,,061021,,,"A*79
"
$GNRMC,061757.40,A,3355.39932,N,11818.43387,W,0.954,,061021,,,"A*7E
"
$GNRMC,061757.50,A,3355.39937,N,11818.43383,W,0.672,,061021,,,"A*75
"
$GNRMC,061757.60,A,3355.39947,N,11818.43374,W,0.307,,061021,,,"A*7E
"
$GNRMC,061757.70,A,3355.39951,N,11818.43362,W,0.481,,061021,,,"A*76
"
$GNRMC,061757.80,A,3355.39954,N,11818.43348,W,0.845,,061021,,,"A*70
"
$GNRMC,061757.90,A,3355.39959,N,11818.43341,W,0.958,,061021,,,"A*78
"
$GNRMC,061758.00,A,3355.39966,N,11818.43335,W,1.003,,061021,,,"A*77
"
$GNRMC,061758.10,A,3355.39967,N,11818.43332,W,0.947,,061021,,,"A*78
"
$GNRMC,061758.20,A,3355.39965,N,11818.43334,W,0.733,,061021,,,"A*72
"
$GNRMC,061758.30,A,3355.39960,N,11818.43335,W,0.628,,061021,,,"A*7C
"
$GNRMC,061758.40,A,3355.39956,N,11818.43332,W,0.655,,061021,,,"A*73
"
$GNRMC,061758.50,A,3355.39955,N,11818.43329,W,0.664,,061021,,,"A*79
"
$GNRMC,061758.60,A,3355.39954,N,11818.43327,W,0.616,,061021,,,"A*70
"
$GNRMC,061758.70,A,3355.39951,N,11818.43325,W,0.623,,061021,,,"A*70
"
$GNRMC,061758.80,A,3355.39948,N,11818.43325,W,0.645,,061021,,,"A*77
"
$GNRMC,061758.90,A,3355.39949,N,11818.43325,W,0.619,,061021,,,"A*7E
"
$GNRMC,061759.00,A,3355.39949,N,11818.43325,W,0.581,,061021,,,"A*74
"
$GNRMC,061759.10,A,3355.39950,N,11818.43326,W,0.524,,061021,,,"A*71
"
$GNRMC,061759.20,A,3355.39952,N,11818.43329,W,0.402,,061021,,,"A*7A
"
$GNRMC,061759.30,A,3355.39957,N,11818.43329,W,0.193,,061021,,,"A*73
"
$GNRMC,061759.40,A,3355.39958,N,11818.43328,W,0.114,,061021,,,"A*75
"
$GNRMC,061759.50,A,3355.39955,N,11818.43331,W,0.201,,061021,,,"A*76
"
$GNRMC,061759.60,A,3355.39950,N,11818.43332,W,0.350,,061021,,,"A*76
"
$GNRMC,061759.70,A,3355.39947,N,11818.43331,W,0.411,,061021,,,"A*70
"
$GNRMC,061759.80,A,3355.39945,N,11818.43330,W,0.431,,061021,,,"A*7E
"
$GNRMC,061759.90,A,3355.39942,N,11818.43327,W,0.505,,061021,,,"A*78
"
$GNRMC,061800.00,A,3355.39947,N,11818.43324,W,0.350,,061021,,,"A*72
"
$GNRMC,061800.10,A,3355.39953,N,11818.43321,W,0.145,,061021,,,"A*75
"
$GNRMC,061800.20,A,3355.39961,N,11818.43318,W,0.224,,061021,,,"A*79
"
$GNRMC,061800.30,A,3355.39976,N,11818.43311,W,0.532,,061021,,,"A*77
"
$GNRMC,061800.40,A,3355.39984,N,11818.43310,W,0.780,,061021,,,"A*77
"
$GNRMC,061800.50,A,3355.39991,N,11818.43308,W,0.981,,061021,,,"A*74
"
$GNRMC,061800.60,A,3355.40002,N,11818.43306,W,1.176,,061021,,,"A*75
"
$GNRMC,061800.70,A,3355.40018,N,11818.43297,W,1.517,,061021,,,"A*75
"
$GNRMC,061800.80,A,3355.40025,N,11818.43291,W,1.644,,061021,,,"A*77
"
$GNRMC,061800.90,A,3355.40033,N,11818.43286,W,1.755,103.76,061021,,,"A*6B
"
$GNRMC,061801.00,A,3355.40040,N,11818.43287,W,1.746,61.57,061021,,,"A*52
"
$GNRMC,061801.10,A,3355.40048,N,11818.43292,W,1.753,35.34,061021,,,"A*5F
"
$GNRMC,061801.20,A,3355.40054,N,11818.43292,W,1.731,22.24,061021,,,"A*52
"
$GNRMC,061801.30,A,3355.40060,N,11818.43289,W,1.739,15.88,061021,,,"A*54
"
$GNRMC,061801.40,A,3355.40060,N,11818.43283,W,1.561,,061021,,,"A*7C
"
$GNRMC,061801.50,A,3355.40053,N,11818.43273,W,1.269,,061021,,,"A*7D
"
$GNRMC,061801.60,A,3355.40055,N,11818.43266,W,1.262,,061021,,,"A*77
"
$GNRMC,061801.70,A,3355.40056,N,11818.43261,W,1.212,,061021,,,"A*75
"
$GNRMC,061801.80,A,3355.40059,N,11818.43257,W,1.150,,061021,,,"A*75
"
$GNRMC,061801.90,A,3355.40062,N,11818.43253,W,1.117,,061021,,,"A*7B
"
$GNRMC,061802.00,A,3355.40069,N,11818.43252,W,1.131,,061021,,,"A*7F
"
$GNRMC,061802.10,A,3355.40073,N,11818.43259,W,0.998,,061021,,,"A*74
"
$GNRMC,061802.20,A,3355.40077,N,11818.43265,W,0.969,,061021,,,"A*72
"
$GNRMC,061802.30,A,3355.40079,N,11818.43276,W,0.954,,061021,,,"A*71
"
$GNRMC,061802.40,A,3355.40081,N,11818.43282,W,0.982,,061021,,,"A*71
"
$GNRMC,061802.50,A,3355.40078,N,11818.43285,W,0.839,,061021,,,"A*70
"
$GNRMC,061802.60,A,3355.40082,N,11818.43284,W,0.852,,061021,,,"A*7A
"
$GNRMC,061802.70,A,3355.40085,N,11818.43287,W,0.907,,061021,,,"A*7E
"
$GNRMC,061802.80,A,3355.40084,N,11818.43287,W,0.801,,061021,,,"A*77
"
$GNRMC,061802.90,A,3355.40083,N,11818.43282,W,0.590,,061021,,,"A*71
"
$GNRMC,061803.00,A,3355.40084,N,11818.43277,W,0.462,,061021,,,"A*78
"
$GNRMC,061803.10,A,3355.40083,N,11818.43275,W,0.364,,061021,,,"A*7D
"
$GNRMC,061803.20,A,3355.40074,N,11818.43273,W,0.209,,061021,,,"A*7A
"
$GNRMC,061803.30,A,3355.40068,N,11818.43271,W,0.243,,061021,,,"A*7A
"
$GNRMC,061803.40,A,3355.40063,N,11818.43266,W,0.385,,061021,,,"A*7B
"
$GNRMC,061803.50,A,3355.40058,N,11818.43259,W,0.569,,061021,,,"A*7A
"
$GNRMC,061803.60,A,3355.40052,N,11818.43252,W,0.810,,061021,,,"A*7B
"
$GNRMC,061803.70,A,3355.40046,N,11818.43244,W,1.067,,061021,,,"A*71
"
$GNRMC,061803.80,A,3355.40044,N,11818.43240,W,1.105,,061021,,,"A*7D
"
$GNRMC,061803.90,A,3355.40044,N,11818.43232,W,1.174,,061021,,,"A*7F
"
$GNRMC,061804.00,A,3355.40046,N,11818.43233,W,0.960,,061021,,,"A*7E
"
$GNRMC,061804.10,A,3355.40045,N,11818.43227,W,0.996,,061021,,,"A*70
"
$GNRMC,061804.20,A,3355.40041,N,11818.43226,W,1.017,,061021,,,"A*77
"
$GNRMC,061804.30,A,3355.40043,N,11818.43228,W,0.851,,061021,,,"A*71
"
$GNRMC,061804.40,A,3355.40047,N,11818.43230,W,0.680,,061021,,,"A*79
"
$GNRMC,061804.50,A,3355.40052,N,11818.43233,W,0.489,,061021,,,"A*74
"
$GNRMC,061804.60,A,3355.40059,N,11818.43232,W,0.320,,061021,,,"A*79
"
$GNRMC,061804.70,A,3355.40068,N,11818.43223,W,0.380,,061021,,,"A*70
"
$GNRMC,061804.80,A,3355.40075,N,11818.43220,W,0.424,,061021,,,"A*79
"
$GNRMC,061804.90,A,3355.40083,N,11818.43218,W,0.517,,061021,,,"A*7B
"
$GNRMC,061805.00,A,3355.40083,N,11818.43218,W,0.441,,061021,,,"A*71
"
$GNRMC,061805.10,A,3355.40083,N,11818.43218,W,0.356,,061021,,,"A*71
"
$GNRMC,061805.20,A,3355.40081,N,11818.43221,W,0.163,,061021,,,"A*7E
"
$GNRMC,061805.30,A,3355.40079,N,11818.43225,W,0.071,,061021,,,"A*7E
"
$GNRMC,061805.40,A,3355.40082,N,11818.43228,W,0.086,,061021,,,"A*78
"
$GNRMC,061805.50,A,3355.40087,N,11818.43232,W,0.236,,061021,,,"A*7E
"
$GNRMC,061805.60,A,3355.40092,N,11818.43233,W,0.253,,061021,,,"A*7B
"
$GNRMC,061805.70,A,3355.40099,N,11818.43227,W,0.209,,061021,,,"A*7B
"
$GNRMC,061805.80,A,3355.40102,N,11818.43219,W,0.284,,061021,,,"A*7F
"
$GNRMC,061805.90,A,3355.40106,N,11818.43210,W,0.526,,061021,,,"A*7C
"
$GNRMC,061806.00,A,3355.40111,N,11818.43201,W,0.763,,061021,,,"A*73
"
$GNRMC,061806.10,A,3355.40111,N,11818.43194,W,0.747,,061021,,,"A*7B
"
$GNRMC,061806.20,A,3355.40107,N,11818.43187,W,0.909,,061021,,,"A*79
"
$GNRMC,061806.30,A,3355.40097,N,11818.43183,W,1.050,,061021,,,"A*70
"
$GNRMC,061806.40,A,3355.40100,N,11818.43179,W,1.026,,061021,,,"A*7C
"
$GNRMC,061806.50,A,3355.40104,N,11818.43177,W,0.944,,061021,,,"A*7B
"
$GNRMC,061806.60,A,3355.40106,N,11818.43181,W,0.714,,061021,,,"A*78
"
$GNRMC,061806.70,A,3355.40104,N,11818.43186,W,0.576,,061021,,,"A*7A
"
$GNRMC,061806.80,A,3355.40104,N,11818.43195,W,0.461,,061021,,,"A*70
"
$GNRMC,061806.90,A,3355.40107,N,11818.43200,W,0.458,,061021,,,"A*77
"
$GNRMC,061807.00,A,3355.40111,N,11818.43202,W,0.392,,061021,,,"A*7B
"
$GNRMC,061807.10,A,3355.40113,N,11818.43198,W,0.368,,061021,,,"A*7D
"
$GNRMC,061807.20,A,3355.40120,N,11818.43196,W,0.202,,061021,,,"A*7D
"
$GNRMC,061807.30,A,3355.40126,N,11818.43199,W,0.034,,061021,,,"A*72
"
$GNRMC,061807.40,A,3355.40135,N,11818.43205,W,0.218,,061021,,,"A*7D
"
$GNRMC,061807.50,A,3355.40144,N,11818.43212,W,0.474,,061021,,,"A*70
"
$GNRMC,061807.60,A,3355.40162,N,11818.43226,W,1.099,,061021,,,"A*76
"
$GNRMC,061807.70,A,3355.40167,N,11818.43230,W,1.179,,061021,,,"A*7A
"
$GNRMC,061807.80,A,3355.40170,N,11818.43228,W,1.029,,061021,,,"A*7E
"
$GNRMC,061807.90,A,3355.40173,N,11818.43222,W,0.830,,061021,,,"A*77
"
$GNRMC,061808.00,A,3355.40178,N,11818.43217,W,0.765,,061021,,,"A*73
"
$GNRMC,061808.10,A,3355.40183,N,11818.43215,W,0.824,,061021,,,"A*7E
"
$GNRMC,061808.20,A,3355.40186,N,11818.43217,W,0.812,,061021,,,"A*7F
"
$GNRMC,061808.30,A,3355.40191,N,11818.43222,W,0.903,,061021,,,"A*7F
"
$GNRMC,061808.40,A,3355.40196,N,11818.43228,W,1.048,,061021,,,"A*72
"
$GNRMC,061808.50,A,3355.40202,N,11818.43232,W,1.174,,061021,,,"A*78
"
$GNRMC,061808.60,A,3355.40203,N,11818.43234,W,1.128,,061021,,,"A*75
"
$GNRMC,061808.70,A,3355.40201,N,11818.43233,W,0.945,,061021,,,"A*73
"
$GNRMC,061808.80,A,3355.40198,N,11818.43234,W,0.771,,061021,,,"A*71
"
$GNRMC,061808.90,A,3355.40194,N,11818.43230,W,0.469,,061021,,,"A*72
"
$GNRMC,061809.00,A,3355.40202,N,11818.43226,W,0.400,,061021,,,"A*7E
"
$GNRMC,061809.10,A,3355.40207,N,11818.43224,W,0.463,,061021,,,"A*7D
"
$GNRMC,061809.20,A,3355.40215,N,11818.43220,W,0.620,,061021,,,"A*7C
"
$GNRMC,061809.30,A,3355.40226,N,11818.43216,W,0.874,,061021,,,"A*77
"
$GNRMC,061809.40,A,3355.40231,N,11818.43215,W,0.903,,061021,,,"A*74
"
$GNRMC,061809.50,A,3355.40234,N,11818.43212,W,0.885,,061021,,,"A*78
"
$GNRMC,061809.60,A,3355.40229,N,11818.43211,W,0.618,,061021,,,"A*7E
"
$GNRMC,061809.70,A,3355.40224,N,11818.43209,W,0.474,,061021,,,"A*73
"
$GNRMC,061809.80,A,3355.40221,N,11818.43208,W,0.383,,061021,,,"A*77
"
$GNRMC,061809.90,A,3355.40212,N,11818.43212,W,0.157,,061021,,,"A*76
"
$GNRMC,061810.00,A,3355.40206,N,11818.43215,W,0.204,,061021,,,"A*70
"
$GNRMC,061810.10,A,3355.40199,N,11818.43217,W,0.406,,061021,,,"A*72
"
$GNRMC,061810.20,A,3355.40195,N,11818.43215,W,0.484,,061021,,,"A*75
"
$GNRMC,061810.30,A,3355.40195,N,11818.43217,W,0.428,,061021,,,"A*70
"
$GNRMC,061810.40,A,3355.40196,N,11818.43223,W,0.454,,061021,,,"A*78
"
$GNRMC,061810.50,A,3355.40197,N,11818.43231,W,0.604,,061021,,,"A*7C
"
$GNRMC,061810.60,A,3355.40198,N,11818.43234,W,0.651,,061021,,,"A*75
"
$GNRMC,061810.70,A,3355.40195,N,11818.43234,W,0.661,,061021,,,"A*7A
"
$GNRMC,061810.80,A,3355.40190,N,11818.43233,W,0.737,,061021,,,"A*75
"
$GNRMC,061810.90,A,3355.40185,N,11818.43233,W,0.822,,061021,,,"A*7B
"
$GNRMC,061811.00,A,3355.40184,N,11818.43233,W,0.826,,061021,,,"A*76
"
$GNRMC,061811.10,A,3355.40183,N,11818.43235,W,0.839,,061021,,,"A*78
"
$GNRMC,061811.20,A,3355.40180,N,11818.43233,W,0.850,,061021,,,"A*71
"
$GNRMC,061811.30,A,3355.40177,N,11818.43230,W,0.862,,061021,,,"A*7A
"
$GNRMC,061811.40,A,3355.40173,N,11818.43231,W,1.000,,061021,,,"A*75
"
$GNRMC,061811.50,A,3355.40176,N,11818.43232,W,0.899,,061021,,,"A*7B
"
$GNRMC,061811.60,A,3355.40179,N,11818.43237,W,0.883,,061021,,,"A*79
"
$GNRMC,061811.70,A,3355.40181,N,11818.43239,W,0.812,,061021,,,"A*79
"
$GNRMC,061811.80,A,3355.40184,N,11818.43238,W,0.669,,061021,,,"A*70
"
$GNRMC,061811.90,A,3355.40183,N,11818.43236,W,0.491,,061021,,,"A*7D
"
$GNRMC,061812.00,A,3355.40183,N,11818.43229,W,0.502,,061021,,,"A*72
"
$GNRMC,061812.10,A,3355.40184,N,11818.43222,W,0.581,,061021,,,"A*74
"
$GNRMC,061812.20,A,3355.40185,N,11818.43213,W,0.753,,061021,,,"A*79
"
$GNRMC,061812.30,A,3355.40185,N,11818.43207,W,0.858,,061021,,,"A*79
"
$GNRMC,061812.40,A,3355.40189,N,11818.43209,W,0.681,,061021,,,"A*76
"
$GNRMC,061812.50,A,3355.40192,N,11818.43209,W,0.544,,061021,,,"A*77
"
$GNRMC,061812.60,A,3355.40195,N,11818.43208,W,0.518,,061021,,,"A*7B
"
$GNRMC,061812.70,A,3355.40197,N,11818.43208,W,0.470,,061021,,,"A*77
"
$GNRMC,061812.80,A,3355.40201,N,11818.43210,W,0.430,,061021,,,"A*79
"
$GNRMC,061812.90,A,3355.40205,N,11818.43215,W,0.449,,061021,,,"A*77
"
$GNRMC,061813.00,A,3355.40203,N,11818.43223,W,0.404,,061021,,,"A*75
"
$GNRMC,061813.10,A,3355.40197,N,11818.43226,W,0.278,,061021,,,"A*72
"
$GNRMC,061813.20,A,3355.40195,N,11818.43229,W,0.325,,061021,,,"A*75
"
$GNRMC,061813.30,A,3355.40190,N,11818.43231,W,0.370,,061021,,,"A*78
"
$GNRMC,061813.40,A,3355.40187,N,11818.43230,W,0.367,,061021,,,"A*7E
"
$GNRMC,061813.50,A,3355.40185,N,11818.43232,W,0.430,,061021,,,"A*7A
"
$GNRMC,061813.60,A,3355.40179,N,11818.43236,W,0.663,,061021,,,"A*7A
"
$GNRMC,061813.70,A,3355.40174,N,11818.43239,W,0.792,,061021,,,"A*76
"
$GNRMC,061813.80,A,3355.40170,N,11818.43246,W,0.913,,061021,,,"A*72
"
$GNRMC,061813.90,A,3355.40168,N,11818.43253,W,1.004,,061021,,,"A*70
"
$GNRMC,061814.00,A,3355.40166,N,11818.43262,W,1.210,,061021,,,"A*75
"
$GNRMC,061814.10,A,3355.40159,N,11818.43270,W,1.412,,061021,,,"A*7F
"
$GNRMC,061814.20,A,3355.40150,N,11818.43275,W,1.557,,061021,,,"A*70
"
$GNRMC,061814.30,A,3355.40145,N,11818.43278,W,1.593,,061021,,,"A*70
"
$GNRMC,061814.40,A,3355.40144,N,11818.43281,W,1.550,,061021,,,"A*7F
"
$GNRMC,061814.50,A,3355.40143,N,11818.43280,W,1.440,,061021,,,"A*78
"
$GNRMC,061814.60,A,3355.40145,N,11818.43278,W,1.248,,061021,,,"A*74
"
$GNRMC,061814.70,A,3355.40139,N,11818.43277,W,1.242,,061021,,,"A*7B
"
$GNRMC,061814.80,A,3355.40133,N,11818.43282,W,1.417,,061021,,,"A*72
"
$GNRMC,061814.90,A,3355.40127,N,11818.43284,W,1.494,,061021,,,"A*7B
"
$GNRMC,061815.00,A,3355.40122,N,11818.43287,W,1.526,,061021,,,"A*7D
"
$GNRMC,061815.10,A,3355.40118,N,11818.43290,W,1.556,,061021,,,"A*74
"
$GNRMC,061815.20,A,3355.40116,N,11818.43292,W,1.556,,061021,,,"A*7B
"
$GNRMC,061815.30,A,3355.40115,N,11818.43293,W,1.506,,061021,,,"A*7D
"
$GNRMC,061815.40,A,3355.40116,N,11818.43290,W,1.278,,061021,,,"A*74
"
$GNRMC,061815.50,A,3355.40119,N,11818.43285,W,1.064,,061021,,,"A*71
"
$GNRMC,061815.60,A,3355.40127,N,11818.43278,W,0.715,,061021,,,"A*7D
"
$GNRMC,061815.70,A,3355.40124,N,11818.43274,W,0.744,,061021,,,"A*77
"
$GNRMC,061815.80,A,3355.40122,N,11818.43269,W,0.769,,061021,,,"A*7D
"
$GNRMC,061815.90,A,3355.40122,N,11818.43267,W,0.745,,061021,,,"A*7C
"
$GNRMC,061816.00,A,3355.40122,N,11818.43269,W,0.685,,061021,,,"A*75
"
$GNRMC,061816.10,A,3355.40120,N,11818.43274,W,0.758,,061021,,,"A*7B
"
$GNRMC,061816.20,A,3355.40120,N,11818.43278,W,0.786,,061021,,,"A*77
"
$GNRMC,061816.30,A,3355.40123,N,11818.43269,W,0.710,,061021,,,"A*7A
"
$GNRMC,061816.40,A,3355.40124,N,11818.43261,W,0.737,,061021,,,"A*77
"
$GNRMC,061816.50,A,3355.40126,N,11818.43253,W,0.802,,061021,,,"A*7C
"
$GNRMC,061816.60,A,3355.40129,N,11818.43249,W,0.783,,061021,,,"A*7D
"
$GNRMC,061816.70,A,3355.40125,N,11818.43245,W,0.898,,061021,,,"A*79
"
$GNRMC,061816.80,A,3355.40116,N,11818.43246,W,0.987,,061021,,,"A*7A
"
$GNRMC,061816.90,A,3355.40112,N,11818.43247,W,1.003,,061021,,,"A*7A
"
$GNRMC,061817.00,A,3355.40109,N,11818.43244,W,1.057,,061021,,,"A*7A
"
$GNRMC,061817.10,A,3355.40108,N,11818.43239,W,1.105,,061021,,,"A*76
"
$GNRMC,061817.20,A,3355.40106,N,11818.43240,W,1.001,,061021,,,"A*70
"
$GNRMC,061817.30,A,3355.40105,N,11818.43240,W,0.924,,061021,,,"A*7D
"
$GNRMC,061817.40,A,3355.40103,N,11818.43239,W,0.906,,061021,,,"A*72
"
$GNRMC,061817.50,A,3355.40100,N,11818.43240,W,0.901,,061021,,,"A*79
"
$GNRMC,061817.60,A,3355.40096,N,11818.43240,W,0.928,,061021,,,"A*7F
"
$GNRMC,061817.70,A,3355.40091,N,11818.43238,W,1.081,,061021,,,"A*7D
"
$GNRMC,061817.80,A,3355.40086,N,11818.43237,W,1.149,,061021,,,"A*7E
"
$GNRMC,061817.90,A,3355.40080,N,11818.43236,W,1.284,,061021,,,"A*7A
"
$GNRMC,061818.00,A,3355.40072,N,11818.43234,W,1.463,,061021,,,"A*7C
"
$GNRMC,061818.10,A,3355.40067,N,11818.43233,W,1.425,,061021,,,"A*7C
"
$GNRMC,061818.20,A,3355.40062,N,11818.43235,W,1.352,,061021,,,"A*7B
"
$GNRMC,061818.30,A,3355.40060,N,11818.43234,W,1.257,,061021,,,"A*7D
"
$GNRMC,061818.40,A,3355.40063,N,11818.43234,W,1.027,,061021,,,"A*7C
"
$GNRMC,061818.50,A,3355.40066,N,11818.43233,W,0.861,,061021,,,"A*74
"
$GNRMC,061818.60,A,3355.40074,N,11818.43235,W,0.557,,061021,,,"A*7A
"
$GNRMC,061818.70,A,3355.40069,N,11818.43240,W,0.625,,061021,,,"A*73
"
$GNRMC,061818.80,A,3355.40062,N,11818.43243,W,0.745,,061021,,,"A*73
"
$GNRMC,061818.90,A,3355.40050,N,11818.43249,W,1.002,,061021,,,"A*7C
"
$GNRMC,061819.00,A,3355.40040,N,11818.43251,W,1.131,,061021,,,"A*7D
"
$GNRMC,061819.10,A,3355.40036,N,11818.43258,W,1.225,,061021,,,"A*72
"
$GNRMC,061819.20,A,3355.40029,N,11818.43265,W,1.453,,061021,,,"A*76
"
$GNRMC,061819.30,A,3355.40022,N,11818.43270,W,1.657,,061021,,,"A*7E
"
$GNRMC,061819.40,A,3355.40017,N,11818.43275,W,1.723,293.70,061021,,,"A*69
"
$GNRMC,061819.50,A,3355.40014,N,11818.43278,W,1.684,253.73,061021,,,"A*65
"
$GNRMC,061819.60,A,3355.40012,N,11818.43280,W,1.578,,061021,,,"A*79
"
$GNRMC,061819.70,A,3355.40012,N,11818.43281,W,1.404,,061021,,,"A*73
"
$GNRMC,061819.80,A,3355.40012,N,11818.43279,W,1.249,,061021,,,"A*74
"
$GNRMC,061819.90,A,3355.40014,N,11818.43278,W,1.110,,061021,,,"A*7D
"
$GNRMC,061820.00,A,3355.40018,N,11818.43279,W,0.936,,061021,,,"A*7E
"
$GNRMC,061820.10,A,3355.40020,N,11818.43280,W,0.819,,061021,,,"A*7E
"
$GNRMC,061820.20,A,3355.40017,N,11818.43281,W,0.886,,061021,,,"A*7E
"
$GNRMC,061820.30,A,3355.40013,N,11818.43283,W,0.963,,061021,,,"A*73
"
$GNRMC,061820.40,A,3355.40011,N,11818.43280,W,0.903,,061021,,,"A*73
"
$GNRMC,061820.50,A,3355.40010,N,11818.43278,W,0.860,,061021,,,"A*70
"
$GNRMC,061820.60,A,3355.40022,N,11818.43266,W,0.548,,061021,,,"A*7A
"
$GNRMC,061820.70,A,3355.40021,N,11818.43267,W,0.500,,061021,,,"A*75
"
$GNRMC,061820.80,A,3355.40022,N,11818.43270,W,0.373,,061021,,,"A*7D
"
$GNRMC,061820.90,A,3355.40026,N,11818.43274,W,0.183,,061021,,,"A*71
"
$GNRMC,061821.00,A,3355.40031,N,11818.43276,W,0.193,,061021,,,"A*7C
"
$GNRMC,061821.10,A,3355.40037,N,11818.43279,W,0.412,,061021,,,"A*78
"
$GNRMC,061821.20,A,3355.40042,N,11818.43285,W,0.646,,061021,,,"A*79
"
$GNRMC,061821.30,A,3355.40044,N,11818.43290,W,0.744,,061021,,,"A*79
"
$GNRMC,061821.40,A,3355.40046,N,11818.43290,W,0.683,,061021,,,"A*76
"
$GNRMC,061821.50,A,3355.40050,N,11818.43289,W,0.631,,061021,,,"A*71
"
$GNRMC,061821.60,A,3355.40058,N,11818.43291,W,0.761,,061021,,,"A*77
"
$GNRMC,061821.70,A,3355.40065,N,11818.43298,W,0.967,,061021,,,"A*79
"
$GNRMC,061821.80,A,3355.40069,N,11818.43301,W,0.989,,061021,,,"A*7B
"
$GNRMC,061821.90,A,3355.40074,N,11818.43298,W,0.880,,061021,,,"A*7F
"
$GNRMC,061822.00,A,3355.40079,N,11818.43296,W,0.820,,061021,,,"A*7C
"
$GNRMC,061822.10,A,3355.40099,N,11818.43293,W,1.094,,061021,,,"A*70
"
$GNRMC,061822.20,A,3355.40102,N,11818.43292,W,1.031,,061021,,,"A*7E
"
$GNRMC,061822.30,A,3355.40107,N,11818.43294,W,1.067,,061021,,,"A*7F
"
$GNRMC,061822.40,A,3355.40117,N,11818.43292,W,1.227,,061021,,,"A*79
"
$GNRMC,061822.50,A,3355.40126,N,11818.43291,W,1.340,,061021,,,"A*79
"
$GNRMC,061822.60,A,3355.40131,N,11818.43296,W,1.359,,061021,,,"A*73
"
$GNRMC,061822.70,A,3355.40138,N,11818.43302,W,1.459,,061021,,,"A*70
"
$GNRMC,061822.80,A,3355.40146,N,11818.43304,W,1.573,,061021,,,"A*79
"
$GNRMC,061822.90,A,3355.40154,N,11818.43302,W,1.655,,061021,,,"A*7A
"
$GNRMC,061823.00,A,3355.40159,N,11818.43300,W,1.649,,061021,,,"A*70
"
$GNRMC,061823.10,A,3355.40161,N,11818.43297,W,1.578,,061021,,,"A*74
"
$GNRMC,061823.20,A,3355.40161,N,11818.43298,W,1.459,,061021,,,"A*7A
"
$GNRMC,061823.30,A,3355.40158,N,11818.43299,W,1.296,,061021,,,"A*75
"
$GNRMC,061823.40,A,3355.40157,N,11818.43300,W,1.114,,061021,,,"A*75
"
$GNRMC,061823.50,A,3355.40159,N,11818.43298,W,0.993,,061021,,,"A*7C
"
$GNRMC,061823.60,A,3355.40160,N,11818.43295,W,0.961,,061021,,,"A*75
"
$GNRMC,061823.70,A,3355.40158,N,11818.43293,W,0.900,,061021,,,"A*7E
"
$GNRMC,061823.80,A,3355.40158,N,11818.43288,W,0.793,,061021,,,"A*7F
"
$GNRMC,061823.90,A,3355.40155,N,11818.43285,W,0.658,,061021,,,"A*78
"
$GNRMC,061824.00,A,3355.40148,N,11818.43284,W,0.471,,061021,,,"A*72
"
$GNRMC,061824.10,A,3355.40144,N,11818.43282,W,0.416,,061021,,,"A*78
"
$GNRMC,061824.20,A,3355.40142,N,11818.43281,W,0.367,,061021,,,"A*7F
"
$GNRMC,061824.30,A,3355.40141,N,11818.43279,W,0.366,,061021,,,"A*7B
"
$GNRMC,061824.40,A,3355.40143,N,11818.43280,W,0.291,,061021,,,"A*71
"
$GNRMC,061824.50,A,3355.40145,N,11818.43281,W,0.227,,061021,,,"A*7A
"
$GNRMC,061824.60,A,3355.40150,N,11818.43283,W,0.284,,061021,,,"A*76
"
$GNRMC,061824.70,A,3355.40157,N,11818.43285,W,0.453,,061021,,,"A*7A
"
$GNRMC,061824.80,A,3355.40165,N,11818.43286,W,0.650,,061021,,,"A*76
"
$GNRMC,061824.90,A,3355.40169,N,11818.43288,W,0.696,,061021,,,"A*7F
"
$GNRMC,061825.00,A,3355.40168,N,11818.43292,W,0.620,,061021,,,"A*70
"
$GNRMC,061825.10,A,3355.40165,N,11818.43291,W,0.374,,061021,,,"A*7B
"
$GNRMC,061825.20,A,3355.40166,N,11818.43283,W,0.232,,061021,,,"A*7B
"
$GNRMC,061825.30,A,3355.40165,N,11818.43275,W,0.325,,061021,,,"A*77
"
$GNRMC,061825.40,A,3355.40164,N,11818.43272,W,0.359,,061021,,,"A*7D
"
$GNRMC,061825.50,A,3355.40158,N,11818.43272,W,0.445,,061021,,,"A*79
"
$GNRMC,061825.60,A,3355.40153,N,11818.43275,W,0.452,,061021,,,"A*70
"
$GNRMC,061825.70,A,3355.40149,N,11818.43277,W,0.522,,061021,,,"A*7E
"
$GNRMC,061825.80,A,3355.40147,N,11818.43282,W,0.521,,061021,,,"A*76
"
$GNRMC,061825.90,A,3355.40148,N,11818.43286,W,0.486,,061021,,,"A*70
"
$GNRMC,061826.00,A,3355.40140,N,11818.43288,W,0.597,,061021,,,"A*7D
"
$GNRMC,061826.10,A,3355.40131,N,11818.43288,W,0.678,,061021,,,"A*78
"
$GNRMC,061826.20,A,3355.40125,N,11818.43286,W,0.676,,061021,,,"A*7E
"
$GNRMC,061826.30,A,3355.40123,N,11818.43280,W,0.663,,061021,,,"A*7B
"
$GNRMC,061826.40,A,3355.40120,N,11818.43271,W,0.744,,061021,,,"A*75
"
$GNRMC,061826.50,A,3355.40124,N,11818.43262,W,0.741,,061021,,,"A*77
"
$GNRMC,061826.60,A,3355.40130,N,11818.43256,W,0.729,,061021,,,"A*78
"
$GNRMC,061826.70,A,3355.40140,N,11818.43252,W,0.658,,061021,,,"A*7D
"
$GNRMC,061826.80,A,3355.40150,N,11818.43249,W,0.730,,061021,,,"A*76
"
$GNRMC,061826.90,A,3355.40153,N,11818.43244,W,0.809,,061021,,,"A*7C
"
$GNRMC,061827.00,A,3355.40156,N,11818.43238,W,0.858,,061021,,,"A*7E
"
$GNRMC,061827.10,A,3355.40157,N,11818.43234,W,0.882,,061021,,,"A*75
"
$GNRMC,061827.20,A,3355.40158,N,11818.43231,W,0.837,,061021,,,"A*72
"
$GNRMC,061827.30,A,3355.40162,N,11818.43229,W,0.813,,061021,,,"A*75
"
$GNRMC,061827.40,A,3355.40167,N,11818.43228,W,0.779,,061021,,,"A*75
"
$GNRMC,061827.50,A,3355.40171,N,11818.43232,W,0.628,,061021,,,"A*7D
"
$GNRMC,061827.60,A,3355.40174,N,11818.43233,W,0.554,,061021,,,"A*72
"
$GNRMC,061827.70,A,3355.40178,N,11818.43236,W,0.502,,061021,,,"A*79
"
$GNRMC,061827.80,A,3355.40181,N,11818.43239,W,0.476,,061021,,,"A*7D
"
$GNRMC,061827.90,A,3355.40182,N,11818.43238,W,0.420,,061021,,,"A*7D
"
$GNRMC,061828.00,A,3355.40184,N,11818.43239,W,0.405,,061021,,,"A*7B
"
$GNRMC,061828.10,A,3355.40186,N,11818.43238,W,0.322,,061021,,,"A*7B
"
$GNRMC,061828.20,A,3355.40187,N,11818.43234,W,0.224,,061021,,,"A*72
"
$GNRMC,061828.30,A,3355.40189,N,11818.43230,W,0.233,,061021,,,"A*7F
"
$GNRMC,061828.40,A,3355.40188,N,11818.43228,W,0.192,,061021,,,"A*78
"
$GNRMC,061828.50,A,3355.40181,N,11818.43230,W,0.070,,061021,,,"A*74
"
$GNRMC,061828.60,A,3355.40174,N,11818.43226,W,0.326,,061021,,,"A*7A
"
$GNRMC,061828.70,A,3355.40169,N,11818.43222,W,0.531,,061021,,,"A*73
"
$GNRMC,061828.80,A,3355.40167,N,11818.43219,W,0.587,,061021,,,"A*77
"
$GNRMC,061828.90,A,3355.40168,N,11818.43217,W,0.536,,061021,,,"A*7D
"
$GNRMC,061829.00,A,3355.40168,N,11818.43216,W,0.538,,061021,,,"A*7A
"
$GNRMC,061829.10,A,3355.40167,N,11818.43213,W,0.653,,061021,,,"A*7F
"
$GNRMC,061829.20,A,3355.40163,N,11818.43212,W,0.810,,061021,,,"A*70
"
$GNRMC,061829.30,A,3355.40154,N,11818.43215,W,0.865,,061021,,,"A*70
"
$GNRMC,061829.40,A,3355.40157,N,11818.43214,W,0.743,,061021,,,"A*7E
"
$GNRMC,061829.50,A,3355.40162,N,11818.43215,W,0.532,,061021,,,"A*7C
"
$GNRMC,061829.60,A,3355.40166,N,11818.43215,W,0.413,,061021,,,"A*79
"
$GNRMC,061829.70,A,3355.40166,N,11818.43211,W,0.487,,061021,,,"A*71
"
$GNRMC,061829.80,A,3355.40167,N,11818.43207,W,0.522,,061021,,,"A*76
"
$GNRMC,061829.90,A,3355.40167,N,11818.43199,W,0.683,,061021,,,"A*7B
"
$GNRMC,061830.00,A,3355.40169,N,11818.43193,W,0.770,,061021,,,"A*73
"
$GNRMC,061830.10,A,3355.40172,N,11818.43189,W,0.754,,061021,,,"A*75
"
$GNRMC,061830.20,A,3355.40175,N,11818.43189,W,0.606,,061021,,,"A*77
"
$GNRMC,061830.30,A,3355.40178,N,11818.43187,W,0.563,,061021,,,"A*75
"
$GNRMC,061830.40,A,3355.40180,N,11818.43184,W,0.594,,061021,,,"A*7E
"
$GNRMC,061830.50,A,3355.40182,N,11818.43180,W,0.647,,061021,,,"A*74
"
$GNRMC,061830.60,A,3355.40183,N,11818.43177,W,0.655,,061021,,,"A*7D
"
$GNRMC,061830.70,A,3355.40184,N,11818.43175,W,0.615,,061021,,,"A*7D
"
$GNRMC,061830.80,A,3355.40187,N,11818.43176,W,0.507,,061021,,,"A*72
"
$GNRMC,061830.90,A,3355.40193,N,11818.43174,W,0.567,,061021,,,"A*72
"
$GNRMC,061831.00,A,3355.40196,N,11818.43177,W,0.478,,061021,,,"A*73
"
$GNRMC,061831.10,A,3355.40199,N,11818.43183,W,0.441,,061021,,,"A*7C
"
$GNRMC,061831.20,A,3355.40199,N,11818.43190,W,0.427,,061021,,,"A*7D
"
$GNRMC,061831.30,A,3355.40198,N,11818.43189,W,0.320,,061021,,,"A*75
"
$GNRMC,061831.40,A,3355.40204,N,11818.43187,W,0.369,,061021,,,"A*77
"
$GNRMC,061831.50,A,3355.40210,N,11818.43182,W,0.422,,061021,,,"A*7E
"
$GNRMC,061831.60,A,3355.40214,N,11818.43175,W,0.457,,061021,,,"A*73
"
$GNRMC,061831.70,A,3355.40216,N,11818.43169,W,0.513,,061021,,,"A*7C
"
$GNRMC,061831.80,A,3355.40215,N,11818.43167,W,0.488,,061021,,,"A*7D
"
$GNRMC,061831.90,A,3355.40212,N,11818.43165,W,0.434,,061021,,,"A*7E
"
$GNRMC,061832.00,A,3355.40210,N,11818.43159,W,0.519,,061021,,,"A*77
"
$GNRMC,061832.10,A,3355.40212,N,11818.43154,W,0.605,,061021,,,"A*77
"
$GNRMC,061832.20,A,3355.40208,N,11818.43153,W,0.582,,061021,,,"A*74
"
$GNRMC,061832.30,A,3355.40212,N,11818.43152,W,0.534,,061021,,,"A*72
"
$GNRMC,061832.40,A,3355.40216,N,11818.43153,W,0.406,,061021,,,"A*70
"
$GNRMC,061832.50,A,3355.40217,N,11818.43155,W,0.273,,061021,,,"A*72
"
$GNRMC,061832.60,A,3355.40219,N,11818.43157,W,0.131,,061021,,,"A*78
"
$GNRMC,061832.70,A,3355.40221,N,11818.43158,W,0.087,,061021,,,"A*71
"
$GNRMC,061832.80,A,3355.40225,N,11818.43158,W,0.140,,061021,,,"A*70
"
$GNRMC,061832.90,A,3355.40229,N,11818.43162,W,0.401,,061021,,,"A*74
"
$GNRMC,061833.00,A,3355.40234,N,11818.43164,W,0.549,,061021,,,"A*7B
"
$GNRMC,061833.10,A,3355.40239,N,11818.43165,W,0.697,,061021,,,"A*76
"
$GNRMC,061833.20,A,3355.40247,N,11818.43167,W,0.910,,061021,,,"A*7E
"
$GNRMC,061833.30,A,3355.40252,N,11818.43167,W,0.979,,061021,,,"A*74
"
$GNRMC,061833.40,A,3355.40254,N,11818.43169,W,0.949,,061021,,,"A*78
"
$GNRMC,061833.50,A,3355.40256,N,11818.43172,W,0.949,,061021,,,"A*71
"
$GNRMC,061833.60,A,3355.40256,N,11818.43174,W,0.879,,061021,,,"A*76
"
$GNRMC,061833.70,A,3355.40256,N,11818.43178,W,0.843,,061021,,,"A*72
"
$GNRMC,061833.80,A,3355.40259,N,11818.43181,W,0.881,,061021,,,"A*7A
"
$GNRMC,061833.90,A,3355.40261,N,11818.43182,W,0.897,,061021,,,"A*74
"
$GNRMC,061834.00,A,3355.40261,N,11818.43186,W,0.909,,061021,,,"A*78
"
$GNRMC,061834.10,A,3355.40259,N,11818.43191,W,0.895,,061021,,,"A*70
"
$GNRMC,061834.20,A,3355.40258,N,11818.43195,W,0.891,,061021,,,"A*72
"
$GNRMC,061834.30,A,3355.40261,N,11818.43196,W,0.882,,061021,,,"A*78
"
$GNRMC,061834.40,A,3355.40267,N,11818.43196,W,0.915,,061021,,,"A*76
"
$GNRMC,061834.50,A,3355.40274,N,11818.43190,W,0.818,,061021,,,"A*7F
"
$GNRMC,061834.60,A,3355.40279,N,11818.43187,W,0.846,,061021,,,"A*7C
"
$GNRMC,061834.70,A,3355.40286,N,11818.43182,W,0.936,,061021,,,"A*7E
"
$GNRMC,061834.80,A,3355.40291,N,11818.43175,W,1.020,,061021,,,"A*70
"
$GNRMC,061834.90,A,3355.40297,N,11818.43168,W,1.155,,061021,,,"A*78
"
$GNRMC,061835.00,A,3355.40301,N,11818.43161,W,1.248,,061021,,,"A*78
"
$GNRMC,061835.10,A,3355.40306,N,11818.43152,W,1.287,,061021,,,"A*7D
"
$GNRMC,061835.20,A,3355.40312,N,11818.43142,W,1.490,,061021,,,"A*7A
"
$GNRMC,061835.30,A,3355.40316,N,11818.43132,W,1.679,328.75,061021,,,"A*68
"
$GNRMC,061835.40,A,3355.40319,N,11818.43125,W,1.732,5.10,061021,,,"A*67
"
$GNRMC,061835.50,A,3355.40322,N,11818.43121,W,1.732,21.32,061021,,,"A*5C
"
$GNRMC,061835.60,A,3355.40327,N,11818.43123,W,1.642,25.42,061021,,,"A*5D
"
$GNRMC,061835.70,A,3355.40330,N,11818.43126,W,1.552,,061021,,,"A*72
"
$GNRMC,061835.80,A,3355.40332,N,11818.43125,W,1.456,,061021,,,"A*79
"
$GNRMC,061835.90,A,3355.40330,N,11818.43121,W,1.346,,061021,,,"A*78
"
$GNRMC,061836.00,A,3355.40330,N,11818.43124,W,1.211,,061021,,,"A*74
"
$GNRMC,061836.10,A,3355.40332,N,11818.43127,W,1.164,,061021,,,"A*75
"
$GNRMC,061836.20,A,3355.40327,N,11818.43135,W,0.878,,061021,,,"A*74
"
$GNRMC,061836.30,A,3355.40320,N,11818.43139,W,0.586,,061021,,,"A*72
"
$GNRMC,061836.40,A,3355.40314,N,11818.43143,W,0.409,,061021,,,"A*79
"
$GNRMC,061836.50,A,3355.40308,N,11818.43148,W,0.409,,061021,,,"A*7E
"
$GNRMC,061836.60,A,3355.40301,N,11818.43153,W,0.546,,061021,,,"A*74
"
$GNRMC,061836.70,A,3355.40297,N,11818.43156,W,0.648,,061021,,,"A*73
"
$GNRMC,061836.80,A,3355.40294,N,11818.43159,W,0.725,,061021,,,"A*7A
"
$GNRMC,061836.90,A,3355.40291,N,11818.43164,W,0.861,,061021,,,"A*7F
"
$GNRMC,061837.00,A,3355.40286,N,11818.43163,W,0.830,,061021,,,"A*72
"
$GNRMC,061837.10,A,3355.40283,N,11818.43161,W,0.781,,061021,,,"A*71
"
$GNRMC,061837.20,A,3355.40280,N,11818.43165,W,0.889,,061021,,,"A*72
"
$GNRMC,061837.30,A,3355.40277,N,11818.43170,W,0.971,,061021,,,"A*79
"
$GNRMC,061837.40,A,3355.40273,N,11818.43171,W,1.009,,061021,,,"A*7C
"
$GNRMC,061837.50,A,3355.40269,N,11818.43173,W,1.049,,061021,,,"A*70
"
$GNRMC,061837.60,A,3355.40265,N,11818.43172,W,1.024,,061021,,,"A*75
"
$GNRMC,061837.70,A,3355.40258,N,11818.43166,W,0.978,,061021,,,"A*7E
"
$GNRMC,061837.80,A,3355.40251,N,11818.43159,W,0.990,,061021,,,"A*72
"
$GNRMC,061837.90,A,3355.40243,N,11818.43153,W,1.085,,061021,,,"A*76
"
$GNRMC,061838.00,A,3355.40236,N,11818.43152,W,1.150,,061021,,,"A*7A
"
$GNRMC,061838.10,A,3355.40231,N,11818.43151,W,1.120,,061021,,,"A*78
"
$GNRMC,061838.20,A,3355.40237,N,11818.43154,W,0.819,,061021,,,"A*7A
"
$GNRMC,061838.30,A,3355.40243,N,11818.43158,W,0.646,,061021,,,"A*70
"
$GNRMC,061838.40,A,3355.40249,N,11818.43161,W,0.581,,061021,,,"A*7F
"
$GNRMC,061838.50,A,3355.40254,N,11818.43162,W,0.533,,061021,,,"A*78
"
$GNRMC,061838.60,A,3355.40259,N,11818.43160,W,0.446,,061021,,,"A*77
"
$GNRMC,061838.70,A,3355.40264,N,11818.43157,W,0.332,,061021,,,"A*78
"
$GNRMC,061838.80,A,3355.40270,N,11818.43153,W,0.353,,061021,,,"A*71
"
$GNRMC,061838.90,A,3355.40276,N,11818.43153,W,0.494,,061021,,,"A*7A
"
$GNRMC,061839.00,A,3355.40282,N,11818.43148,W,0.599,,061021,,,"A*7F
"
$GNRMC,061839.10,A,3355.40289,N,11818.43140,W,0.763,,061021,,,"A*7A
"
$GNRMC,061839.20,A,3355.40297,N,11818.43128,W,1.000,,061021,,,"A*7B
"
$GNRMC,061839.30,A,3355.40302,N,11818.43121,W,1.107,,061021,,,"A*78
"
$GNRMC,061839.40,A,3355.40297,N,11818.43121,W,0.890,,061021,,,"A*74
"
$GNRMC,061839.50,A,3355.40291,N,11818.43118,W,0.722,,061021,,,"A*7F
"
$GNRMC,061839.60,A,3355.40284,N,11818.43116,W,0.577,,061021,,,"A*74
"
$GNRMC,061839.70,A,3355.40273,N,11818.43120,W,0.350,,061021,,,"A*7B
"
$GNRMC,061839.80,A,3355.40266,N,11818.43124,W,0.274,,061021,,,"A*73
"
$GNRMC,061839.90,A,3355.40262,N,11818.43124,W,0.270,,061021,,,"A*72
"
$GNRMC,061840.00,A,3355.40259,N,11818.43124,W,0.265,,061021,,,"A*79
"
$GNRMC,061840.10,A,3355.40254,N,11818.43130,W,0.442,,061021,,,"A*73
"
$GNRMC,061840.20,A,3355.40247,N,11818.43129,W,0.533,,061021,,,"A*7D
"
$GNRMC,061840.30,A,3355.40240,N,11818.43132,W,0.671,,061021,,,"A*74
"
$GNRMC,061840.40,A,3355.40234,N,11818.43141,W,0.888,,061021,,,"A*7C
"
$GNRMC,061840.50,A,3355.40228,N,11818.43143,W,0.963,,061021,,,"A*76
"
$GNRMC,061840.60,A,3355.40222,N,11818.43140,W,0.941,,061021,,,"A*7C
"
$GNRMC,061840.70,A,3355.40221,N,11818.43133,W,0.779,,061021,,,"A*7F
"
$GNRMC,061840.80,A,3355.40217,N,11818.43130,W,0.814,,061021,,,"A*72
"
$GNRMC,061840.90,A,3355.40222,N,11818.43124,W,0.774,,061021,,,"A*79
"
$GNRMC,061841.00,A,3355.40223,N,11818.43125,W,0.764,,061021,,,"A*70
"
$GNRMC,061841.10,A,3355.40223,N,11818.43130,W,0.723,,061021,,,"A*76
"
$GNRMC,061841.20,A,3355.40222,N,11818.43138,W,0.816,,061021,,,"A*75
"
$GNRMC,061841.30,A,3355.40219,N,11818.43147,W,0.980,,061021,,,"A*7A
"
$GNRMC,061841.40,A,3355.40216,N,11818.43157,W,1.204,,061021,,,"A*75
"
$GNRMC,061841.50,A,3355.40214,N,11818.43165,W,1.343,,061021,,,"A*75
"
$GNRMC,061841.60,A,3355.40211,N,11818.43168,W,1.330,,061021,,,"A*7A
"
$GNRMC,061841.70,A,3355.40207,N,11818.43162,W,1.084,,061021,,,"A*7A
"
$GNRMC,061841.80,A,3355.40203,N,11818.43154,W,0.836,,061021,,,"A*74
"
$GNRMC,061841.90,A,3355.40194,N,11818.43149,W,0.888,,061021,,,"A*71
"
$GNRMC,061842.00,A,3355.40188,N,11818.43143,W,0.947,,061021,,,"A*7E
"
$GNRMC,061842.10,A,3355.40183,N,11818.43141,W,0.997,,061021,,,"A*7B
"
$GNRMC,061842.20,A,3355.40183,N,11818.43138,W,0.896,,061021,,,"A*76
"
$GNRMC,061842.30,A,3355.40185,N,11818.43140,W,0.811,,061021,,,"A*71
"
$GNRMC,061842.40,A,3355.40182,N,11818.43140,W,0.863,,061021,,,"A*74
"
$GNRMC,061842.50,A,3355.40179,N,11818.43138,W,0.918,,061021,,,"A*73
"
$GNRMC,061842.60,A,3355.40179,N,11818.43136,W,0.812,,061021,,,"A*75
"
$GNRMC,061842.70,A,3355.40179,N,11818.43131,W,0.707,,061021,,,"A*78
"
$GNRMC,061842.80,A,3355.40180,N,11818.43125,W,0.675,,061021,,,"A*70
"
$GNRMC,061842.90,A,3355.40182,N,11818.43124,W,0.504,,061021,,,"A*77
"
$GNRMC,061843.00,A,3355.40183,N,11818.43122,W,0.473,,061021,,,"A*79
"
$GNRMC,061843.10,A,3355.40183,N,11818.43117,W,0.569,,061021,,,"A*74
"
$GNRMC,061843.20,A,3355.40183,N,11818.43112,W,0.684,,061021,,,"A*72
"
$GNRMC,061843.30,A,3355.40186,N,11818.43110,W,0.625,,061021,,,"A*7F
"
$GNRMC,061843.40,A,3355.40194,N,11818.43110,W,0.561,,061021,,,"A*78
"
$GNRMC,061843.50,A,3355.40203,N,11818.43110,W,0.595,,061021,,,"A*7F
"
$GNRMC,061843.60,A,3355.40214,N,11818.43101,W,0.918,,061021,,,"A*73
"
$GNRMC,061843.70,A,3355.40210,N,11818.43094,W,0.982,,061021,,,"A*78
"
$GNRMC,061843.80,A,3355.40200,N,11818.43091,W,0.957,,061021,,,"A*7B
"
$GNRMC,061843.90,A,3355.40195,N,11818.43083,W,1.112,,061021,,,"A*7E
"
$GNRMC,061844.00,A,3355.40195,N,11818.43079,W,1.142,,061021,,,"A*70
"
$GNRMC,061844.10,A,3355.40197,N,11818.43078,W,1.018,,061021,,,"A*7C
"
$GNRMC,061844.20,A,3355.40199,N,11818.43077,W,0.954,,061021,,,"A*7E
"
$GNRMC,061844.30,A,3355.40200,N,11818.43078,W,0.828,,061021,,,"A*79
"
$GNRMC,061844.40,A,3355.40200,N,11818.43082,W,0.607,,061021,,,"A*78
"
$GNRMC,061844.50,A,3355.40202,N,11818.43085,W,0.475,,061021,,,"A*7B
"
$GNRMC,061844.60,A,3355.40208,N,11818.43085,W,0.525,,061021,,,"A*76
"
$GNRMC,061844.70,A,3355.40215,N,11818.43084,W,0.650,,061021,,,"A*7B
"
$GNRMC,061844.80,A,3355.40222,N,11818.43080,W,0.896,,061021,,,"A*70
"
$GNRMC,061844.90,A,3355.40223,N,11818.43080,W,0.903,,061021,,,"A*7D
"
$GNRMC,061845.00,A,3355.40223,N,11818.43081,W,0.904,,061021,,,"A*73
"
$GNRMC,061845.10,A,3355.40223,N,11818.43082,W,0.878,,061021,,,"A*7B
"
$GNRMC,061845.20,A,3355.40221,N,11818.43086,W,0.755,,061021,,,"A*7E
"
$GNRMC,061845.30,A,3355.40215,N,11818.43091,W,0.572,,061021,,,"A*79
"
$GNRMC,061845.40,A,3355.40204,N,11818.43099,W,0.445,,061021,,,"A*73
"
$GNRMC,061845.50,A,3355.40195,N,11818.43106,W,0.501,,061021,,,"A*7F
"
