$GNRMC,062226.10,A,3355.40575,N,11818.42010,W,0.809,,041021,,,"A*7D
"
$GNRMC,062226.20,A,3355.40554,N,11818.41981,W,1.255,,041021,,,"A*7D
"
$GNRMC,062226.30,A,3355.40523,N,11818.41969,W,1.575,88.10,041021,,,"A*50
"
$GNRMC,062226.40,A,3355.40502,N,11818.42028,W,1.410,,041021,,,"A*76
"
$GNRMC,062226.50,A,3355.40494,N,11818.42049,W,1.308,,041021,,,"A*70
"
$GNRMC,062226.60,A,3355.40494,N,11818.42096,W,0.942,,041021,,,"A*74
"
$GNRMC,062226.70,A,3355.40498,N,11818.42152,W,0.445,,041021,,,"A*7A
"
$GNRMC,062226.80,A,3355.40485,N,11818.42224,W,0.159,,041021,,,"A*73
"
$GNRMC,062226.90,A,3355.40478,N,11818.42190,W,0.290,,041021,,,"A*7A
"
$GNRMC,062227.00,A,3355.40474,N,11818.42142,W,0.504,,041021,,,"A*7B
"
$GNRMC,062227.10,A,3355.40472,N,11818.42118,W,0.574,,041021,,,"A*74
"
$GNRMC,062227.20,A,3355.40477,N,11818.42108,W,0.445,,041021,,,"A*70
"
$GNRMC,062227.30,A,3355.40481,N,11818.42101,W,0.350,,041021,,,"A*72
"
$GNRMC,062227.40,A,3355.40491,N,11818.42044,W,0.456,,041021,,,"A*75
"
$GNRMC,062227.50,A,3355.40498,N,11818.42043,W,0.296,,041021,,,"A*70
"
$GNRMC,062227.60,A,3355.40490,N,11818.42050,W,0.318,,041021,,,"A*7E
"
$GNRMC,062227.70,A,3355.40476,N,11818.42067,W,0.371,,041021,,,"A*7C
"
$GNRMC,062227.80,A,3355.40471,N,11818.42069,W,0.388,,041021,,,"A*7C
"
$GNRMC,062227.90,A,3355.40469,N,11818.42063,W,0.403,,041021,,,"A*7A
"
$GNRMC,062228.00,A,3355.40471,N,11818.42053,W,0.364,,041021,,,"A*70
"
$GNRMC,062228.10,A,3355.40472,N,11818.42061,W,0.275,,041021,,,"A*72
"
$GNRMC,062228.20,A,3355.40466,N,11818.42090,W,0.283,,041021,,,"A*73
"
$GNRMC,062228.30,A,3355.40469,N,11818.42046,W,0.306,,041021,,,"A*7A
"
$GNRMC,062228.40,A,3355.40467,N,11818.42040,W,0.322,,041021,,,"A*73
"
$GNRMC,062228.50,A,3355.40463,N,11818.42041,W,0.323,,041021,,,"A*76
"
$GNRMC,062228.60,A,3355.40469,N,11818.42011,W,0.394,,041021,,,"A*76
"
$GNRMC,062228.70,A,3355.40476,N,11818.41968,W,0.531,,041021,,,"A*74
"
$GNRMC,062228.80,A,3355.40481,N,11818.41947,W,0.557,,041021,,,"A*7E
"
$GNRMC,062228.90,A,3355.40489,N,11818.41921,W,0.584,,041021,,,"A*79
"
$GNRMC,062229.00,A,3355.40492,N,11818.41909,W,0.583,,041021,,,"A*76
"
$GNRMC,062229.10,A,3355.40486,N,11818.41932,W,0.526,,041021,,,"A*75
"
$GNRMC,062229.20,A,3355.40476,N,11818.41965,W,0.459,,041021,,,"A*72
"
$GNRMC,062229.30,A,3355.40472,N,11818.41968,W,0.486,,041021,,,"A*78
"
$GNRMC,062229.40,A,3355.40468,N,11818.41975,W,0.489,,041021,,,"A*77
"
$GNRMC,062229.50,A,3355.40472,N,11818.41963,W,0.510,,041021,,,"A*7B
"
$GNRMC,062229.60,A,3355.40474,N,11818.41971,W,0.427,,041021,,,"A*78
"
$GNRMC,062229.70,A,3355.40469,N,11818.41986,W,0.426,,041021,,,"A*7C
"
$GNRMC,062229.80,A,3355.40460,N,11818.41986,W,0.544,,041021,,,"A*7F
"
$GNRMC,062229.90,A,3355.40444,N,11818.41986,W,0.803,,041021,,,"A*76
"
$GNRMC,062230.00,A,3355.40426,N,11818.42030,W,0.789,,041021,,,"A*79
"
$GNRMC,062230.10,A,3355.40403,N,11818.42121,W,0.567,,041021,,,"A*7C
"
$GNRMC,062230.20,A,3355.40389,N,11818.42151,W,0.599,,041021,,,"A*7C
"
$GNRMC,062230.30,A,3355.40385,N,11818.42168,W,0.557,,041021,,,"A*79
"
$GNRMC,062230.40,A,3355.40381,N,11818.42190,W,0.484,,041021,,,"A*72
"
$GNRMC,062230.50,A,3355.40377,N,11818.42210,W,0.450,,041021,,,"A*78
"
$GNRMC,062230.60,A,3355.40378,N,11818.42200,W,0.502,,041021,,,"A*73
"
$GNRMC,062230.70,A,3355.40399,N,11818.42134,W,0.611,,041021,,,"A*78
"
$GNRMC,062230.80,A,3355.40400,N,11818.42124,W,0.688,,041021,,,"A*71
"
$GNRMC,062230.90,A,3355.40393,N,11818.42137,W,0.744,,041021,,,"A*7E
"
$GNRMC,062231.00,A,3355.40384,N,11818.42153,W,0.793,,041021,,,"A*78
"
$GNRMC,062231.10,A,3355.40371,N,11818.42194,W,0.746,,041021,,,"A*70
"
$GNRMC,062231.20,A,3355.40373,N,11818.42195,W,0.713,,041021,,,"A*70
"
$GNRMC,062231.30,A,3355.40378,N,11818.42189,W,0.681,,041021,,,"A*7D
"
$GNRMC,062231.40,A,3355.40382,N,11818.42183,W,0.661,,041021,,,"A*7B
"
$GNRMC,062231.50,A,3355.40387,N,11818.42179,W,0.617,,041021,,,"A*7B
"
$GNRMC,062231.60,A,3355.40385,N,11818.42193,W,0.561,,041021,,,"A*7C
"
$GNRMC,062231.70,A,3355.40382,N,11818.42199,W,0.562,,041021,,,"A*73
"
$GNRMC,062231.80,A,3355.40378,N,11818.42213,W,0.520,,041021,,,"A*7E
"
$GNRMC,062231.90,A,3355.40373,N,11818.42229,W,0.478,,041021,,,"A*71
"
$GNRMC,062232.00,A,3355.40368,N,11818.42237,W,0.486,,041021,,,"A*7F
"
$GNRMC,062232.10,A,3355.40364,N,11818.42242,W,0.513,,041021,,,"A*7D
"
$GNRMC,062232.20,A,3355.40364,N,11818.42222,W,0.614,,041021,,,"A*7C
"
$GNRMC,062232.30,A,3355.40361,N,11818.42227,W,0.602,,041021,,,"A*7A
"
$GNRMC,062232.40,A,3355.40360,N,11818.42239,W,0.524,,041021,,,"A*74
"
$GNRMC,062232.50,A,3355.40359,N,11818.42261,W,0.406,,041021,,,"A*73
"
$GNRMC,062232.60,A,3355.40361,N,11818.42268,W,0.326,,041021,,,"A*77
"
$GNRMC,062232.70,A,3355.40361,N,11818.42279,W,0.295,,041021,,,"A*7F
"
$GNRMC,062232.80,A,3355.40361,N,11818.42287,W,0.284,,041021,,,"A*71
"
$GNRMC,062232.90,A,3355.40364,N,11818.42292,W,0.225,,041021,,,"A*7A
"
$GNRMC,062233.00,A,3355.40368,N,11818.42293,W,0.212,,041021,,,"A*7B
"
$GNRMC,062233.10,A,3355.40372,N,11818.42284,W,0.189,,041021,,,"A*76
"
$GNRMC,062233.20,A,3355.40372,N,11818.42282,W,0.208,,041021,,,"A*79
"
$GNRMC,062233.30,A,3355.40367,N,11818.42297,W,0.225,,041021,,,"A*77
"
$GNRMC,062233.40,A,3355.40366,N,11818.42307,W,0.206,,041021,,,"A*78
"
$GNRMC,062233.50,A,3355.40359,N,11818.42322,W,0.259,,041021,,,"A*78
"
$GNRMC,062233.60,A,3355.40347,N,11818.42358,W,0.378,,041021,,,"A*7B
"
$GNRMC,062233.70,A,3355.40347,N,11818.42370,W,0.368,,041021,,,"A*71
"
$GNRMC,062233.80,A,3355.40348,N,11818.42367,W,0.338,,041021,,,"A*72
"
$GNRMC,062233.90,A,3355.40348,N,11818.42378,W,0.325,,041021,,,"A*71
"
$GNRMC,062234.00,A,3355.40344,N,11818.42410,W,0.396,,041021,,,"A*72
"
$GNRMC,062234.10,A,3355.40338,N,11818.42435,W,0.433,,041021,,,"A*77
"
$GNRMC,062234.20,A,3355.40333,N,11818.42448,W,0.392,,041021,,,"A*79
"
$GNRMC,062234.30,A,3355.40327,N,11818.42452,W,0.320,,041021,,,"A*7F
"
$GNRMC,062234.40,A,3355.40325,N,11818.42422,W,0.223,,041021,,,"A*7F
"
$GNRMC,062234.50,A,3355.40321,N,11818.42424,W,0.206,,041021,,,"A*7B
"
$GNRMC,062234.60,A,3355.40323,N,11818.42419,W,0.181,,041021,,,"A*78
"
$GNRMC,062234.70,A,3355.40324,N,11818.42419,W,0.145,,041021,,,"A*76
"
$GNRMC,062234.80,A,3355.40323,N,11818.42421,W,0.085,,041021,,,"A*78
"
$GNRMC,062234.90,A,3355.40323,N,11818.42430,W,0.050,,041021,,,"A*71
"
$GNRMC,062235.00,A,3355.40322,N,11818.42440,W,0.073,,041021,,,"A*7E
"
$GNRMC,062235.10,A,3355.40321,N,11818.42447,W,0.078,,041021,,,"A*70
"
$GNRMC,062235.20,A,3355.40319,N,11818.42455,W,0.087,,041021,,,"A*7B
"
$GNRMC,062235.30,A,3355.40314,N,11818.42473,W,0.147,,041021,,,"A*7E
"
$GNRMC,062235.40,A,3355.40311,N,11818.42477,W,0.160,,041021,,,"A*7D
"
$GNRMC,062235.50,A,3355.40306,N,11818.42497,W,0.181,,041021,,,"A*7B
"
$GNRMC,062235.60,A,3355.40298,N,11818.42521,W,0.214,,041021,,,"A*7D
"
$GNRMC,062235.70,A,3355.40291,N,11818.42538,W,0.247,,041021,,,"A*7B
"
$GNRMC,062235.80,A,3355.40291,N,11818.42551,W,0.283,,041021,,,"A*73
"
$GNRMC,062235.90,A,3355.40291,N,11818.42552,W,0.281,,041021,,,"A*73
"
$GNRMC,062236.00,A,3355.40292,N,11818.42557,W,0.308,,041021,,,"A*7F
"
$GNRMC,062236.10,A,3355.40294,N,11818.42554,W,0.298,,041021,,,"A*73
"
$GNRMC,062236.20,A,3355.40294,N,11818.42545,W,0.230,,041021,,,"A*72
"
$GNRMC,062236.30,A,3355.40294,N,11818.42538,W,0.175,,041021,,,"A*7B
"
$GNRMC,062236.40,A,3355.40291,N,11818.42544,W,0.165,,041021,,,"A*73
"
$GNRMC,062236.50,A,3355.40285,N,11818.42561,W,0.175,,041021,,,"A*71
"
$GNRMC,062236.60,A,3355.40283,N,11818.42569,W,0.187,,041021,,,"A*71
"
$GNRMC,062236.70,A,3355.40282,N,11818.42581,W,0.246,,041021,,,"A*79
"
$GNRMC,062236.80,A,3355.40284,N,11818.42585,W,0.271,,041021,,,"A*70
"
$GNRMC,062236.90,A,3355.40285,N,11818.42588,W,0.263,,041021,,,"A*7E
"
$GNRMC,062237.00,A,3355.40287,N,11818.42593,W,0.308,,041021,,,"A*72
"
$GNRMC,062237.10,A,3355.40288,N,11818.42599,W,0.347,,041021,,,"A*7D
"
$GNRMC,062237.20,A,3355.40291,N,11818.42593,W,0.337,,041021,,,"A*7B
"
$GNRMC,062237.30,A,3355.40290,N,11818.42591,W,0.293,,041021,,,"A*76
"
$GNRMC,062237.40,A,3355.40281,N,11818.42603,W,0.250,,041021,,,"A*76
"
$GNRMC,062237.50,A,3355.40275,N,11818.42617,W,0.260,,041021,,,"A*7A
"
$GNRMC,062237.60,A,3355.40271,N,11818.42629,W,0.296,,041021,,,"A*79
"
$GNRMC,062237.70,A,3355.40266,N,11818.42640,W,0.302,,041021,,,"A*7D
"
$GNRMC,062237.80,A,3355.40260,N,11818.42650,W,0.329,,041021,,,"A*7C
"
$GNRMC,062237.90,A,3355.40257,N,11818.42654,W,0.332,,041021,,,"A*77
"
$GNRMC,062238.00,A,3355.40258,N,11818.42648,W,0.325,,041021,,,"A*75
"
$GNRMC,062238.10,A,3355.40259,N,11818.42646,W,0.319,,041021,,,"A*74
"
$GNRMC,062238.20,A,3355.40258,N,11818.42651,W,0.348,,041021,,,"A*74
"
$GNRMC,062238.30,A,3355.40258,N,11818.42648,W,0.364,,041021,,,"A*73
"
$GNRMC,062238.40,A,3355.40257,N,11818.42640,W,0.355,,041021,,,"A*71
"
$GNRMC,062238.50,A,3355.40257,N,11818.42627,W,0.252,,041021,,,"A*77
"
$GNRMC,062238.60,A,3355.40258,N,11818.42614,W,0.210,,041021,,,"A*7D
"
$GNRMC,062238.70,A,3355.40260,N,11818.42608,W,0.199,,041021,,,"A*78
"
$GNRMC,062238.80,A,3355.40263,N,11818.42599,W,0.193,,041021,,,"A*75
"
$GNRMC,062238.90,A,3355.40260,N,11818.42601,W,0.221,,041021,,,"A*7F
"
$GNRMC,062239.00,A,3355.40256,N,11818.42612,W,0.242,,041021,,,"A*75
"
$GNRMC,062239.10,A,3355.40255,N,11818.42601,W,0.209,,041021,,,"A*7A
"
$GNRMC,062239.20,A,3355.40255,N,11818.42572,W,0.170,,041021,,,"A*73
"
$GNRMC,062239.30,A,3355.40253,N,11818.42576,W,0.211,,041021,,,"A*74
"
$GNRMC,062239.40,A,3355.40254,N,11818.42572,W,0.212,,041021,,,"A*73
"
$GNRMC,062239.50,A,3355.40258,N,11818.42572,W,0.185,,041021,,,"A*73
"
$GNRMC,062239.60,A,3355.40257,N,11818.42583,W,0.222,,041021,,,"A*7F
"
$GNRMC,062239.70,A,3355.40253,N,11818.42591,W,0.220,,041021,,,"A*7B
"
$GNRMC,062239.80,A,3355.40245,N,11818.42609,W,0.247,,041021,,,"A*70
"
$GNRMC,062239.90,A,3355.40238,N,11818.42629,W,0.283,,041021,,,"A*71
"
$GNRMC,062240.00,A,3355.40230,N,11818.42666,W,0.417,,041021,,,"A*7E
"
$GNRMC,062240.10,A,3355.40225,N,11818.42695,W,0.524,,041021,,,"A*76
"
$GNRMC,062240.20,A,3355.40224,N,11818.42709,W,0.578,,041021,,,"A*79
"
$GNRMC,062240.30,A,3355.40224,N,11818.42723,W,0.663,,041021,,,"A*79
"
$GNRMC,062240.40,A,3355.40221,N,11818.42736,W,0.704,183.38,041021,,,"A*60
"
$GNRMC,062240.50,A,3355.40217,N,11818.42740,W,0.692,223.91,041021,,,"A*61
"
$GNRMC,062240.60,A,3355.40216,N,11818.42737,W,0.658,241.50,041021,,,"A*6C
"
$GNRMC,062240.70,A,3355.40215,N,11818.42738,W,0.638,,041021,,,"A*7B
"
$GNRMC,062240.80,A,3355.40212,N,11818.42752,W,0.679,252.01,041021,,,"A*60
"
$GNRMC,062240.90,A,3355.40211,N,11818.42758,W,0.701,258.01,041021,,,"A*6C
"
$GNRMC,062241.00,A,3355.40216,N,11818.42754,W,0.719,262.56,041021,,,"A*6D
"
$GNRMC,062241.10,A,3355.40221,N,11818.42735,W,0.674,264.38,041021,,,"A*6B
"
$GNRMC,062241.20,A,3355.40225,N,11818.42735,W,0.704,267.76,041021,,,"A*63
"
$GNRMC,062241.30,A,3355.40227,N,11818.42748,W,0.803,270.84,041021,,,"A*69
"
$GNRMC,062241.40,A,3355.40230,N,11818.42744,W,0.786,273.05,041021,,,"A*6C
"
$GNRMC,062241.50,A,3355.40234,N,11818.42736,W,0.762,275.27,041021,,,"A*60
"
$GNRMC,062241.60,A,3355.40237,N,11818.42734,W,0.762,275.71,041021,,,"A*61
"
$GNRMC,062241.70,A,3355.40239,N,11818.42731,W,0.767,274.43,041021,,,"A*6E
"
$GNRMC,062241.80,A,3355.40240,N,11818.42735,W,0.782,272.45,041021,,,"A*60
"
$GNRMC,062241.90,A,3355.40241,N,11818.42738,W,0.790,270.53,041021,,,"A*6B
"
$GNRMC,062242.00,A,3355.40243,N,11818.42738,W,0.789,269.31,041021,,,"A*67
"
$GNRMC,062242.10,A,3355.40246,N,11818.42732,W,0.764,269.23,041021,,,"A*69
"
$GNRMC,062242.20,A,3355.40248,N,11818.42734,W,0.753,269.67,041021,,,"A*66
"
$GNRMC,062242.30,A,3355.40248,N,11818.42740,W,0.771,269.86,041021,,,"A*6B
"
$GNRMC,062242.40,A,3355.40248,N,11818.42742,W,0.782,266.71,041021,,,"A*65
"
$GNRMC,062242.50,A,3355.40247,N,11818.42747,W,0.789,264.35,041021,,,"A*67
"
$GNRMC,062242.60,A,3355.40249,N,11818.42746,W,0.762,263.71,041021,,,"A*69
"
$GNRMC,062242.70,A,3355.40252,N,11818.42745,W,0.765,264.27,041021,,,"A*62
"
$GNRMC,062242.80,A,3355.40255,N,11818.42741,W,0.765,263.87,041021,,,"A*63
"
$GNRMC,062242.90,A,3355.40258,N,11818.42738,W,0.764,264.01,041021,,,"A*69
"
$GNRMC,062243.00,A,3355.40261,N,11818.42735,W,0.779,263.73,041021,,,"A*68
"
$GNRMC,062243.10,A,3355.40264,N,11818.42733,W,0.773,263.91,041021,,,"A*6C
"
$GNRMC,062243.20,A,3355.40267,N,11818.42731,W,0.764,264.09,041021,,,"A*6E
"
$GNRMC,062243.30,A,3355.40267,N,11818.42732,W,0.742,264.20,041021,,,"A*63
"
$GNRMC,062243.40,A,3355.40267,N,11818.42735,W,0.733,263.83,041021,,,"A*6B
"
$GNRMC,062243.50,A,3355.40269,N,11818.42731,W,0.701,264.29,041021,,,"A*66
"
$GNRMC,062243.60,A,3355.40269,N,11818.42731,W,0.680,263.90,041021,,,"A*68
"
$GNRMC,062243.70,A,3355.40270,N,11818.42731,W,0.648,264.19,041021,,,"A*63
"
$GNRMC,062243.80,A,3355.40270,N,11818.42736,W,0.650,265.15,041021,,,"A*6F
"
$GNRMC,062243.90,A,3355.40267,N,11818.42739,W,0.669,261.14,041021,,,"A*68
"
$GNRMC,062244.00,A,3355.40267,N,11818.42744,W,0.657,260.40,041021,,,"A*61
"
$GNRMC,062244.10,A,3355.40272,N,11818.42731,W,0.604,,041021,,,"A*7E
"
$GNRMC,062244.20,A,3355.40276,N,11818.42726,W,0.593,,041021,,,"A*72
"
$GNRMC,062244.30,A,3355.40280,N,11818.42722,W,0.583,,041021,,,"A*7F
"
$GNRMC,062244.40,A,3355.40280,N,11818.42728,W,0.596,,041021,,,"A*76
"
$GNRMC,062244.50,A,3355.40277,N,11818.42738,W,0.616,,041021,,,"A*75
"
$GNRMC,062244.60,A,3355.40279,N,11818.42737,W,0.637,260.20,041021,,,"A*6C
"
$GNRMC,062244.70,A,3355.40283,N,11818.42732,W,0.624,,041021,,,"A*77
"
$GNRMC,062244.80,A,3355.40286,N,11818.42730,W,0.615,,041021,,,"A*7D
"
$GNRMC,062244.90,A,3355.40286,N,11818.42732,W,0.590,,041021,,,"A*70
"
$GNRMC,062245.00,A,3355.40282,N,11818.42743,W,0.606,,041021,,,"A*76
"
$GNRMC,062245.10,A,3355.40282,N,11818.42745,W,0.600,,041021,,,"A*77
"
$GNRMC,062245.20,A,3355.40282,N,11818.42749,W,0.605,,041021,,,"A*7D
"
$GNRMC,062245.30,A,3355.40283,N,11818.42750,W,0.583,,041021,,,"A*78
"
$GNRMC,062245.40,A,3355.40284,N,11818.42749,W,0.575,,041021,,,"A*79
"
$GNRMC,062245.50,A,3355.40284,N,11818.42753,W,0.586,,041021,,,"A*7F
"
$GNRMC,062245.60,A,3355.40283,N,11818.42758,W,0.591,,041021,,,"A*76
"
$GNRMC,062245.70,A,3355.40284,N,11818.42762,W,0.605,,041021,,,"A*77
"
$GNRMC,062245.80,A,3355.40284,N,11818.42766,W,0.625,,041021,,,"A*7E
"
$GNRMC,062245.90,A,3355.40285,N,11818.42770,W,0.634,,041021,,,"A*79
"
$GNRMC,062246.00,A,3355.40286,N,11818.42770,W,0.625,,041021,,,"A*70
"
$GNRMC,062246.10,A,3355.40289,N,11818.42765,W,0.598,,041021,,,"A*7F
"
$GNRMC,062246.20,A,3355.40292,N,11818.42753,W,0.529,,041021,,,"A*79
"
$GNRMC,062246.30,A,3355.40297,N,11818.42740,W,0.479,,041021,,,"A*7B
"
$GNRMC,062246.40,A,3355.40299,N,11818.42737,W,0.463,,041021,,,"A*79
"
$GNRMC,062246.50,A,3355.40300,N,11818.42735,W,0.444,,041021,,,"A*7E
"
$GNRMC,062246.60,A,3355.40301,N,11818.42739,W,0.457,,041021,,,"A*72
"
$GNRMC,062246.70,A,3355.40302,N,11818.42741,W,0.474,,041021,,,"A*7E
"
$GNRMC,062246.80,A,3355.40304,N,11818.42751,W,0.531,,041021,,,"A*76
"
$GNRMC,062246.90,A,3355.40306,N,11818.42751,W,0.530,,041021,,,"A*74
"
$GNRMC,062247.00,A,3355.40306,N,11818.42755,W,0.516,,041021,,,"A*7C
"
$GNRMC,062247.10,A,3355.40306,N,11818.42760,W,0.517,,041021,,,"A*7A
"
$GNRMC,062247.20,A,3355.40303,N,11818.42767,W,0.491,,041021,,,"A*74
"
$GNRMC,062247.30,A,3355.40305,N,11818.42768,W,0.474,,041021,,,"A*77
"
$GNRMC,062247.40,A,3355.40307,N,11818.42769,W,0.480,,041021,,,"A*78
"
$GNRMC,062247.50,A,3355.40309,N,11818.42768,W,0.484,,041021,,,"A*72
"
$GNRMC,062247.60,A,3355.40311,N,11818.42768,W,0.495,,041021,,,"A*78
"
$GNRMC,062247.70,A,3355.40314,N,11818.42765,W,0.493,,041021,,,"A*77
"
$GNRMC,062247.80,A,3355.40315,N,11818.42765,W,0.489,,041021,,,"A*72
"
$GNRMC,062247.90,A,3355.40315,N,11818.42766,W,0.471,,041021,,,"A*77
"
$GNRMC,062248.00,A,3355.40314,N,11818.42770,W,0.458,,041021,,,"A*7C
"
$GNRMC,062248.10,A,3355.40313,N,11818.42764,W,0.383,,041021,,,"A*7E
"
$GNRMC,062248.20,A,3355.40315,N,11818.42764,W,0.382,,041021,,,"A*7A
"
$GNRMC,062248.30,A,3355.40319,N,11818.42762,W,0.425,,041021,,,"A*7B
"
$GNRMC,062248.40,A,3355.40319,N,11818.42765,W,0.425,,041021,,,"A*7B
"
$GNRMC,062248.50,A,3355.40319,N,11818.42768,W,0.414,,041021,,,"A*75
"
$GNRMC,062248.60,A,3355.40319,N,11818.42772,W,0.439,,041021,,,"A*72
"
$GNRMC,062248.70,A,3355.40322,N,11818.42775,W,0.474,,041021,,,"A*75
"
$GNRMC,062248.80,A,3355.40325,N,11818.42773,W,0.496,,041021,,,"A*77
"
$GNRMC,062248.90,A,3355.40328,N,11818.42770,W,0.494,,041021,,,"A*7A
"
$GNRMC,062249.00,A,3355.40328,N,11818.42775,W,0.503,,041021,,,"A*78
"
$GNRMC,062249.10,A,3355.40328,N,11818.42784,W,0.534,,041021,,,"A*73
"
$GNRMC,062249.20,A,3355.40330,N,11818.42793,W,0.584,,041021,,,"A*74
"
$GNRMC,062249.30,A,3355.40329,N,11818.42798,W,0.590,,041021,,,"A*73
"
$GNRMC,062249.40,A,3355.40329,N,11818.42804,W,0.618,,041021,,,"A*7D
"
$GNRMC,062249.50,A,3355.40334,N,11818.42805,W,0.684,,041021,,,"A*74
"
$GNRMC,062249.60,A,3355.40334,N,11818.42809,W,0.672,,041021,,,"A*72
"
$GNRMC,062249.70,A,3355.40336,N,11818.42809,W,0.653,,041021,,,"A*72
"
$GNRMC,062249.80,A,3355.40337,N,11818.42813,W,0.678,,041021,,,"A*7E
"
$GNRMC,062249.90,A,3355.40337,N,11818.42818,W,0.677,,041021,,,"A*7B
"
$GNRMC,062250.00,A,3355.40338,N,11818.42822,W,0.666,,041021,,,"A*7C
"
$GNRMC,062250.10,A,3355.40340,N,11818.42822,W,0.665,,041021,,,"A*71
"
$GNRMC,062250.20,A,3355.40342,N,11818.42823,W,0.673,,041021,,,"A*76
"
$GNRMC,062250.30,A,3355.40346,N,11818.42824,W,0.686,,041021,,,"A*7E
"
$GNRMC,062250.40,A,3355.40348,N,11818.42826,W,0.698,,041021,,,"A*7A
"
$GNRMC,062250.50,A,3355.40349,N,11818.42827,W,0.688,,041021,,,"A*7A
"
$GNRMC,062250.60,A,3355.40350,N,11818.42828,W,0.673,,041021,,,"A*7A
"
$GNRMC,062250.70,A,3355.40350,N,11818.42832,W,0.668,,041021,,,"A*7A
"
$GNRMC,062250.80,A,3355.40349,N,11818.42835,W,0.648,,041021,,,"A*78
"
$GNRMC,062250.90,A,3355.40349,N,11818.42837,W,0.623,,041021,,,"A*76
"
$GNRMC,062251.00,A,3355.40353,N,11818.42823,W,0.604,,041021,,,"A*75
"
$GNRMC,062251.10,A,3355.40357,N,11818.42810,W,0.591,,041021,,,"A*7F
"
$GNRMC,062251.20,A,3355.40360,N,11818.42807,W,0.584,,041021,,,"A*7A
"
$GNRMC,062251.30,A,3355.40361,N,11818.42791,W,0.505,,041021,,,"A*73
"
$GNRMC,062251.40,A,3355.40365,N,11818.42772,W,0.435,,041021,,,"A*7F
"
$GNRMC,062251.50,A,3355.40369,N,11818.42759,W,0.424,,041021,,,"A*7B
"
$GNRMC,062251.60,A,3355.40374,N,11818.42743,W,0.401,,041021,,,"A*78
"
$GNRMC,062251.70,A,3355.40379,N,11818.42729,W,0.385,,041021,,,"A*73
"
$GNRMC,062251.80,A,3355.40384,N,11818.42705,W,0.331,,041021,,,"A*7F
"
$GNRMC,062251.90,A,3355.40386,N,11818.42699,W,0.327,,041021,,,"A*7F
"
$GNRMC,062252.00,A,3355.40386,N,11818.42692,W,0.297,,041021,,,"A*74
"
$GNRMC,062252.10,A,3355.40385,N,11818.42684,W,0.240,,041021,,,"A*7B
"
$GNRMC,062252.20,A,3355.40385,N,11818.42677,W,0.206,,041021,,,"A*76
"
$GNRMC,062252.30,A,3355.40385,N,11818.42673,W,0.213,,041021,,,"A*77
"
$GNRMC,062252.40,A,3355.40385,N,11818.42658,W,0.136,,041021,,,"A*7D
"
$GNRMC,062252.50,A,3355.40385,N,11818.42642,W,0.055,,041021,,,"A*73
"
$GNRMC,062252.60,A,3355.40387,N,11818.42625,W,0.028,,041021,,,"A*79
"
$GNRMC,062252.70,A,3355.40389,N,11818.42606,W,0.082,,041021,,,"A*77
"
$GNRMC,062252.80,A,3355.40393,N,11818.42588,W,0.138,,041021,,,"A*76
"
$GNRMC,062252.90,A,3355.40396,N,11818.42571,W,0.184,,041021,,,"A*73
"
$GNRMC,062253.00,A,3355.40400,N,11818.42552,W,0.230,,041021,,,"A*7E
"
$GNRMC,062253.10,A,3355.40403,N,11818.42534,W,0.313,,041021,,,"A*7C
"
$GNRMC,062253.20,A,3355.40404,N,11818.42515,W,0.403,,041021,,,"A*7D
"
$GNRMC,062253.30,A,3355.40405,N,11818.42497,W,0.497,,041021,,,"A*7B
"
$GNRMC,062253.40,A,3355.40408,N,11818.42488,W,0.521,,041021,,,"A*73
"
$GNRMC,062253.50,A,3355.40411,N,11818.42479,W,0.524,,041021,,,"A*71
"
$GNRMC,062253.60,A,3355.40414,N,11818.42468,W,0.560,,041021,,,"A*77
"
$GNRMC,062253.70,A,3355.40421,N,11818.42454,W,0.611,,041021,,,"A*7A
"
$GNRMC,062253.80,A,3355.40426,N,11818.42441,W,0.633,,041021,,,"A*76
"
$GNRMC,062253.90,A,3355.40427,N,11818.42438,W,0.588,,041021,,,"A*7B
"
$GNRMC,062254.00,A,3355.40424,N,11818.42439,W,0.548,,041021,,,"A*7B
"
$GNRMC,062254.10,A,3355.40423,N,11818.42439,W,0.534,,041021,,,"A*76
"
$GNRMC,062254.20,A,3355.40421,N,11818.42438,W,0.553,,041021,,,"A*77
"
$GNRMC,062254.30,A,3355.40420,N,11818.42439,W,0.526,,041021,,,"A*74
"
$GNRMC,062254.40,A,3355.40419,N,11818.42442,W,0.460,,041021,,,"A*76
"
$GNRMC,062254.50,A,3355.40421,N,11818.42436,W,0.455,,041021,,,"A*79
"
$GNRMC,062254.60,A,3355.40423,N,11818.42432,W,0.432,,041021,,,"A*7D
"
$GNRMC,062254.70,A,3355.40427,N,11818.42429,W,0.379,,041021,,,"A*7A
"
$GNRMC,062254.80,A,3355.40431,N,11818.42425,W,0.374,,041021,,,"A*73
"
$GNRMC,062254.90,A,3355.40434,N,11818.42421,W,0.366,,041021,,,"A*70
"
$GNRMC,062255.00,A,3355.40433,N,11818.42419,W,0.370,,041021,,,"A*73
"
$GNRMC,062255.10,A,3355.40429,N,11818.42422,W,0.380,,041021,,,"A*7E
"
$GNRMC,062255.20,A,3355.40425,N,11818.42425,W,0.404,,041021,,,"A*7D
"
$GNRMC,062255.30,A,3355.40422,N,11818.42429,W,0.412,,041021,,,"A*70
"
$GNRMC,062255.40,A,3355.40422,N,11818.42427,W,0.431,,041021,,,"A*78
"
$GNRMC,062255.50,A,3355.40422,N,11818.42422,W,0.431,,041021,,,"A*7C
"
$GNRMC,062255.60,A,3355.40424,N,11818.42419,W,0.441,,041021,,,"A*76
"
$GNRMC,062255.70,A,3355.40424,N,11818.42415,W,0.467,,041021,,,"A*7F
"
$GNRMC,062255.80,A,3355.40425,N,11818.42413,W,0.469,,041021,,,"A*79
"
$GNRMC,062255.90,A,3355.40424,N,11818.42410,W,0.488,,041021,,,"A*75
"
$GNRMC,062256.00,A,3355.40423,N,11818.42412,W,0.452,,041021,,,"A*7D
"
$GNRMC,062256.10,A,3355.40423,N,11818.42414,W,0.442,,041021,,,"A*7B
"
$GNRMC,062256.20,A,3355.40423,N,11818.42416,W,0.418,,041021,,,"A*75
"
$GNRMC,062256.30,A,3355.40421,N,11818.42420,W,0.365,,041021,,,"A*7E
"
$GNRMC,062256.40,A,3355.40421,N,11818.42423,W,0.346,,041021,,,"A*7B
"
$GNRMC,062256.50,A,3355.40421,N,11818.42427,W,0.324,,041021,,,"A*7A
"
$GNRMC,062256.60,A,3355.40422,N,11818.42427,W,0.311,,041021,,,"A*7C
"
$GNRMC,062256.70,A,3355.40424,N,11818.42425,W,0.312,,041021,,,"A*7A
"
$GNRMC,062256.80,A,3355.40426,N,11818.42426,W,0.297,,041021,,,"A*78
"
$GNRMC,062256.90,A,3355.40428,N,11818.42425,W,0.289,,041021,,,"A*7B
"
$GNRMC,062257.00,A,3355.40431,N,11818.42424,W,0.287,,041021,,,"A*74
"
$GNRMC,062257.10,A,3355.40433,N,11818.42424,W,0.267,,041021,,,"A*79
"
$GNRMC,062257.20,A,3355.40433,N,11818.42427,W,0.233,,041021,,,"A*78
"
$GNRMC,062257.30,A,3355.40430,N,11818.42437,W,0.173,,041021,,,"A*7C
"
$GNRMC,062257.40,A,3355.40430,N,11818.42445,W,0.184,,041021,,,"A*76
"
$GNRMC,062257.50,A,3355.40429,N,11818.42454,W,0.159,,041021,,,"A*7F
"
$GNRMC,062257.60,A,3355.40426,N,11818.42464,W,0.126,,041021,,,"A*78
"
$GNRMC,062257.70,A,3355.40424,N,11818.42474,W,0.156,,041021,,,"A*7D
"
$GNRMC,062257.80,A,3355.40426,N,11818.42479,W,0.222,,041021,,,"A*7D
"
$GNRMC,062257.90,A,3355.40428,N,11818.42477,W,0.243,,041021,,,"A*7B
"
$GNRMC,062258.00,A,3355.40429,N,11818.42482,W,0.281,,041021,,,"A*78
"
$GNRMC,062258.10,A,3355.40429,N,11818.42486,W,0.285,,041021,,,"A*79
"
$GNRMC,062258.20,A,3355.40429,N,11818.42480,W,0.213,,041021,,,"A*73
"
$GNRMC,062258.30,A,3355.40428,N,11818.42478,W,0.169,,041021,,,"A*7A
"
$GNRMC,062258.40,A,3355.40428,N,11818.42477,W,0.142,,041021,,,"A*7B
"
$GNRMC,062258.50,A,3355.40429,N,11818.42476,W,0.144,,041021,,,"A*7C
"
$GNRMC,062258.60,A,3355.40433,N,11818.42468,W,0.155,,041021,,,"A*7B
"
$GNRMC,062258.70,A,3355.40436,N,11818.42460,W,0.169,,041021,,,"A*78
"
$GNRMC,062258.80,A,3355.40438,N,11818.42454,W,0.176,,041021,,,"A*70
"
$GNRMC,062258.90,A,3355.40441,N,11818.42447,W,0.192,,041021,,,"A*77
"
$GNRMC,062259.00,A,3355.40440,N,11818.42453,W,0.175,,041021,,,"A*72
"
$GNRMC,062259.10,A,3355.40441,N,11818.42454,W,0.184,,041021,,,"A*7B
"
$GNRMC,062259.20,A,3355.40442,N,11818.42455,W,0.200,,041021,,,"A*75
"
$GNRMC,062259.30,A,3355.40443,N,11818.42455,W,0.212,,041021,,,"A*76
"
$GNRMC,062259.40,A,3355.40446,N,11818.42448,W,0.242,,041021,,,"A*7D
"
$GNRMC,062259.50,A,3355.40446,N,11818.42441,W,0.217,,041021,,,"A*75
"
$GNRMC,062259.60,A,3355.40448,N,11818.42436,W,0.262,,041021,,,"A*7A
"
$GNRMC,062259.70,A,3355.40446,N,11818.42442,W,0.220,,041021,,,"A*70
"
$GNRMC,062259.80,A,3355.40444,N,11818.42448,W,0.192,,041021,,,"A*7D
"
$GNRMC,062259.90,A,3355.40442,N,11818.42453,W,0.172,,041021,,,"A*7E
"
$GNRMC,062300.00,A,3355.40438,N,11818.42459,W,0.131,,041021,,,"A*7A
"
$GNRMC,062300.10,A,3355.40435,N,11818.42469,W,0.074,,041021,,,"A*75
"
$GNRMC,062300.20,A,3355.40429,N,11818.42471,W,0.116,,041021,,,"A*77
"
$GNRMC,062300.30,A,3355.40428,N,11818.42465,W,0.167,,041021,,,"A*74
"
$GNRMC,062300.40,A,3355.40429,N,11818.42463,W,0.168,,041021,,,"A*7B
"
$GNRMC,062300.50,A,3355.40428,N,11818.42467,W,0.151,,041021,,,"A*75
"
$GNRMC,062300.60,A,3355.40425,N,11818.42472,W,0.185,,041021,,,"A*76
"
$GNRMC,062300.70,A,3355.40420,N,11818.42481,W,0.211,,041021,,,"A*70
"
$GNRMC,062300.80,A,3355.40417,N,11818.42489,W,0.204,,041021,,,"A*77
"
$GNRMC,062300.90,A,3355.40416,N,11818.42491,W,0.212,,041021,,,"A*79
"
$GNRMC,062301.00,A,3355.40417,N,11818.42490,W,0.186,,041021,,,"A*7F
"
$GNRMC,062301.10,A,3355.40420,N,11818.42486,W,0.150,,041021,,,"A*76
"
$GNRMC,062301.20,A,3355.40420,N,11818.42484,W,0.152,,041021,,,"A*75
"
$GNRMC,062301.30,A,3355.40420,N,11818.42483,W,0.157,,041021,,,"A*76
"
$GNRMC,062301.40,A,3355.40420,N,11818.42485,W,0.143,,041021,,,"A*72
"
$GNRMC,062301.50,A,3355.40420,N,11818.42485,W,0.135,,041021,,,"A*72
"
$GNRMC,062301.60,A,3355.40421,N,11818.42482,W,0.133,,041021,,,"A*71
"
$GNRMC,062301.70,A,3355.40424,N,11818.42478,W,0.110,,041021,,,"A*71
"
$GNRMC,062301.80,A,3355.40428,N,11818.42476,W,0.064,,041021,,,"A*7E
"
$GNRMC,062301.90,A,3355.40430,N,11818.42476,W,0.033,,041021,,,"A*74
"
$GNRMC,062302.00,A,3355.40430,N,11818.42469,W,0.079,,041021,,,"A*7E
"
$GNRMC,062302.10,A,3355.40431,N,11818.42471,W,0.051,,041021,,,"A*7D
"
$GNRMC,062302.20,A,3355.40432,N,11818.42474,W,0.030,,041021,,,"A*7F
"
$GNRMC,062302.30,A,3355.40433,N,11818.42473,W,0.039,,041021,,,"A*71
"
$GNRMC,062302.40,A,3355.40433,N,11818.42476,W,0.036,,041021,,,"A*7C
"
$GNRMC,062302.50,A,3355.40433,N,11818.42478,W,0.048,,041021,,,"A*7A
"
$GNRMC,062302.60,A,3355.40433,N,11818.42481,W,0.052,,041021,,,"A*74
"
$GNRMC,062302.70,A,3355.40434,N,11818.42486,W,0.065,,041021,,,"A*71
"
$GNRMC,062302.80,A,3355.40435,N,11818.42492,W,0.093,,041021,,,"A*73
"
$GNRMC,062302.90,A,3355.40437,N,11818.42497,W,0.148,,041021,,,"A*72
"
$GNRMC,062303.00,A,3355.40437,N,11818.42505,W,0.188,,041021,,,"A*7C
"
$GNRMC,062303.10,A,3355.40437,N,11818.42510,W,0.209,,041021,,,"A*73
"
$GNRMC,062303.20,A,3355.40436,N,11818.42515,W,0.219,,041021,,,"A*75
"
$GNRMC,062303.30,A,3355.40435,N,11818.42518,W,0.202,,041021,,,"A*70
"
$GNRMC,062303.40,A,3355.40434,N,11818.42525,W,0.245,,041021,,,"A*7B
"
$GNRMC,062303.50,A,3355.40437,N,11818.42530,W,0.292,,041021,,,"A*77
"
$GNRMC,062303.60,A,3355.40439,N,11818.42539,W,0.376,,041021,,,"A*78
"
$GNRMC,062303.70,A,3355.40442,N,11818.42548,W,0.468,,041021,,,"A*7B
"
$GNRMC,062303.80,A,3355.40442,N,11818.42560,W,0.551,,041021,,,"A*75
"
$GNRMC,062303.90,A,3355.40443,N,11818.42567,W,0.590,,041021,,,"A*7F
"
$GNRMC,062304.00,A,3355.40443,N,11818.42579,W,0.660,,041021,,,"A*72
"
$GNRMC,062304.10,A,3355.40442,N,11818.42597,W,0.755,,041021,,,"A*75
"
$GNRMC,062304.20,A,3355.40441,N,11818.42615,W,0.860,269.90,041021,,,"A*6F
"
$GNRMC,062304.30,A,3355.40443,N,11818.42625,W,0.918,275.47,041021,,,"A*66
"
$GNRMC,062304.40,A,3355.40444,N,11818.42640,W,0.994,278.21,041021,,,"A*6C
"
$GNRMC,062304.50,A,3355.40444,N,11818.42652,W,1.039,279.30,041021,,,"A*60
"
$GNRMC,062304.60,A,3355.40443,N,11818.42662,W,1.068,278.76,041021,,,"A*60
"
$GNRMC,062304.70,A,3355.40441,N,11818.42682,W,1.164,277.68,041021,,,"A*60
"
$GNRMC,062304.80,A,3355.40445,N,11818.42691,W,1.222,278.58,041021,,,"A*64
"
$GNRMC,062304.90,A,3355.40449,N,11818.42700,W,1.277,280.18,041021,,,"A*63
"
$GNRMC,062305.00,A,3355.40451,N,11818.42715,W,1.353,281.50,041021,,,"A*6C
"
$GNRMC,062305.10,A,3355.40451,N,11818.42734,W,1.441,282.14,041021,,,"A*69
"
$GNRMC,062305.20,A,3355.40451,N,11818.42756,W,1.541,282.19,041021,,,"A*62
"
$GNRMC,062305.30,A,3355.40454,N,11818.42771,W,1.612,282.49,041021,,,"A*63
"
$GNRMC,062305.40,A,3355.40454,N,11818.42776,W,1.593,282.03,041021,,,"A*67
"
$GNRMC,062305.50,A,3355.40456,N,11818.42777,W,1.545,282.26,041021,,,"A*69
"
$GNRMC,062305.60,A,3355.40452,N,11818.42787,W,1.515,281.00,041021,,,"A*63
"
$GNRMC,062305.70,A,3355.40454,N,11818.42786,W,1.460,280.55,041021,,,"A*67
"
$GNRMC,062305.80,A,3355.40457,N,11818.42784,W,1.405,280.76,041021,,,"A*6B
"
$GNRMC,062305.90,A,3355.40457,N,11818.42778,W,1.309,280.53,041021,,,"A*65
"
$GNRMC,062306.00,A,3355.40455,N,11818.42793,W,1.331,279.58,041021,,,"A*6E
"
$GNRMC,062306.10,A,3355.40454,N,11818.42795,W,1.271,279.13,041021,,,"A*62
"
$GNRMC,062306.20,A,3355.40454,N,11818.42801,W,1.234,279.06,041021,,,"A*66
"
$GNRMC,062306.30,A,3355.40453,N,11818.42806,W,1.189,278.83,041021,,,"A*6E
"
$GNRMC,062306.40,A,3355.40453,N,11818.42807,W,1.154,278.65,041021,,,"A*60
"
$GNRMC,062306.50,A,3355.40456,N,11818.42795,W,1.038,279.18,041021,,,"A*60
"
$GNRMC,062306.60,A,3355.40459,N,11818.42789,W,0.965,280.43,041021,,,"A*69
"
$GNRMC,062306.70,A,3355.40459,N,11818.42793,W,0.936,281.37,041021,,,"A*67
"
$GNRMC,062306.80,A,3355.40456,N,11818.42797,W,0.886,,041021,,,"A*78
"
$GNRMC,062306.90,A,3355.40454,N,11818.42792,W,0.788,,041021,,,"A*7F
"
$GNRMC,062307.00,A,3355.40453,N,11818.42793,W,0.739,,041021,,,"A*7B
"
