$GNRMC,053625.00,A,3355.40027,N,11818.43663,W,0.130,,061021,,,"A*79
"
$GNRMC,053625.10,A,3355.40025,N,11818.43663,W,0.133,,061021,,,"A*79
"
$GNRMC,053625.20,A,3355.40024,N,11818.43665,W,0.097,,061021,,,"A*72
"
$GNRMC,053625.30,A,3355.40024,N,11818.43665,W,0.083,,061021,,,"A*76
"
$GNRMC,053625.40,A,3355.40025,N,11818.43666,W,0.243,,061021,,,"A*7D
"
$GNRMC,053625.50,A,3355.40024,N,11818.43667,W,0.243,,061021,,,"A*7C
"
$GNRMC,053625.60,A,3355.40025,N,11818.43664,W,0.205,,061021,,,"A*7F
"
$GNRMC,053625.70,A,3355.40023,N,11818.43665,W,0.103,,061021,,,"A*7C
"
$GNRMC,053625.80,A,3355.40022,N,11818.43664,W,0.506,,061021,,,"A*72
"
$GNRMC,053625.90,A,3355.40023,N,11818.43664,W,0.408,,061021,,,"A*7D
"
$GNRMC,053626.00,A,3355.40023,N,11818.43665,W,0.227,,061021,,,"A*7D
"
$GNRMC,053626.10,A,3355.40022,N,11818.43667,W,0.055,,061021,,,"A*78
"
$GNRMC,053626.20,A,3355.40020,N,11818.43666,W,0.089,,061021,,,"A*79
"
$GNRMC,053626.30,A,3355.40019,N,11818.43666,W,0.149,,061021,,,"A*7F
"
$GNRMC,053626.40,A,3355.40018,N,11818.43667,W,0.180,,061021,,,"A*7D
"
$GNRMC,053626.50,A,3355.40018,N,11818.43667,W,0.050,,061021,,,"A*70
"
$GNRMC,053626.60,A,3355.40016,N,11818.43666,W,0.190,,061021,,,"A*71
"
$GNRMC,053626.70,A,3355.40016,N,11818.43667,W,0.038,,061021,,,"A*72
"
$GNRMC,053626.80,A,3355.40015,N,11818.43668,W,0.088,,061021,,,"A*7A
"
$GNRMC,053626.90,A,3355.40013,N,11818.43668,W,0.279,,061021,,,"A*71
"
$GNRMC,053627.00,A,3355.40013,N,11818.43667,W,0.153,,061021,,,"A*7D
"
$GNRMC,053627.10,A,3355.40012,N,11818.43666,W,0.192,,061021,,,"A*71
"
$GNRMC,053627.20,A,3355.40011,N,11818.43665,W,0.146,,061021,,,"A*7B
"
$GNRMC,053627.30,A,3355.40011,N,11818.43665,W,0.049,,061021,,,"A*74
"
$GNRMC,053627.40,A,3355.40010,N,11818.43664,W,0.102,,061021,,,"A*7D
"
$GNRMC,053627.50,A,3355.40009,N,11818.43661,W,0.274,,061021,,,"A*73
"
$GNRMC,053627.60,A,3355.40009,N,11818.43661,W,0.210,,061021,,,"A*72
"
$GNRMC,053627.70,A,3355.40009,N,11818.43663,W,0.073,,061021,,,"A*76
"
$GNRMC,053627.80,A,3355.40008,N,11818.43664,W,0.059,,061021,,,"A*77
"
$GNRMC,053627.90,A,3355.40007,N,11818.43664,W,0.001,,061021,,,"A*74
"
$GNRMC,053628.00,A,3355.40008,N,11818.43664,W,0.106,,061021,,,"A*7B
"
$GNRMC,053628.10,A,3355.40008,N,11818.43664,W,0.182,,061021,,,"A*76
"
$GNRMC,053628.20,A,3355.40007,N,11818.43666,W,0.057,,061021,,,"A*71
"
$GNRMC,053628.30,A,3355.40007,N,11818.43666,W,0.046,,061021,,,"A*70
"
$GNRMC,053628.40,A,3355.40006,N,11818.43667,W,0.035,,061021,,,"A*73
"
$GNRMC,053628.50,A,3355.40006,N,11818.43668,W,0.038,,061021,,,"A*70
"
$GNRMC,053628.60,A,3355.40005,N,11818.43667,W,0.048,,061021,,,"A*78
"
$GNRMC,053628.70,A,3355.40005,N,11818.43667,W,0.041,,061021,,,"A*70
"
$GNRMC,053628.80,A,3355.40004,N,11818.43668,W,0.073,,061021,,,"A*70
"
$GNRMC,053628.90,A,3355.40003,N,11818.43670,W,0.250,,061021,,,"A*7C
"
$GNRMC,053629.00,A,3355.40002,N,11818.43670,W,0.062,,061021,,,"A*76
"
$GNRMC,053629.10,A,3355.40003,N,11818.43668,W,0.129,,061021,,,"A*71
"
$GNRMC,053629.20,A,3355.40002,N,11818.43668,W,0.158,,061021,,,"A*75
"
$GNRMC,053629.30,A,3355.40000,N,11818.43671,W,0.172,,061021,,,"A*76
"
$GNRMC,053629.40,A,3355.40000,N,11818.43670,W,0.057,,061021,,,"A*76
"
$GNRMC,053629.50,A,3355.40000,N,11818.43671,W,0.069,,061021,,,"A*7B
"
$GNRMC,053629.60,A,3355.40000,N,11818.43669,W,0.300,,061021,,,"A*7D
"
$GNRMC,053629.70,A,3355.40000,N,11818.43671,W,0.298,,061021,,,"A*75
"
$GNRMC,053629.80,A,3355.40001,N,11818.43673,W,0.233,,061021,,,"A*78
"
$GNRMC,053629.90,A,3355.40001,N,11818.43671,W,0.096,,061021,,,"A*76
"
$GNRMC,053630.00,A,3355.40000,N,11818.43670,W,0.043,,061021,,,"A*7F
"
$GNRMC,053630.10,A,3355.40000,N,11818.43671,W,0.046,,061021,,,"A*7A
"
$GNRMC,053630.20,A,3355.40000,N,11818.43672,W,0.101,,061021,,,"A*78
"
$GNRMC,053630.30,A,3355.40000,N,11818.43671,W,0.060,,061021,,,"A*7C
"
$GNRMC,053630.40,A,3355.39999,N,11818.43672,W,0.126,,061021,,,"A*7C
"
$GNRMC,053630.50,A,3355.40000,N,11818.43672,W,0.068,,061021,,,"A*71
"
$GNRMC,053630.60,A,3355.39999,N,11818.43671,W,0.076,,061021,,,"A*79
"
$GNRMC,053630.70,A,3355.39998,N,11818.43671,W,0.130,,061021,,,"A*7A
"
$GNRMC,053630.80,A,3355.39998,N,11818.43672,W,0.051,,061021,,,"A*70
"
$GNRMC,053630.90,A,3355.39998,N,11818.43672,W,0.164,,061021,,,"A*76
"
$GNRMC,053631.00,A,3355.39997,N,11818.43672,W,0.188,,061021,,,"A*73
"
$GNRMC,053631.10,A,3355.39998,N,11818.43671,W,0.005,,061021,,,"A*7A
"
$GNRMC,053631.20,A,3355.39997,N,11818.43671,W,0.098,,061021,,,"A*72
"
$GNRMC,053631.30,A,3355.39996,N,11818.43672,W,0.020,,061021,,,"A*72
"
$GNRMC,053631.40,A,3355.39995,N,11818.43672,W,0.054,,061021,,,"A*75
"
$GNRMC,053631.50,A,3355.39995,N,11818.43672,W,0.046,,061021,,,"A*77
"
$GNRMC,053631.60,A,3355.39995,N,11818.43672,W,0.087,,061021,,,"A*79
"
$GNRMC,053631.70,A,3355.39996,N,11818.43670,W,0.127,,061021,,,"A*72
"
$GNRMC,053631.80,A,3355.39996,N,11818.43671,W,0.228,,061021,,,"A*70
"
$GNRMC,053631.90,A,3355.39995,N,11818.43670,W,0.075,,061021,,,"A*79
"
$GNRMC,053632.00,A,3355.39996,N,11818.43670,W,0.115,,061021,,,"A*77
"
$GNRMC,053632.10,A,3355.39995,N,11818.43670,W,0.044,,061021,,,"A*70
"
$GNRMC,053632.20,A,3355.39994,N,11818.43671,W,0.083,,061021,,,"A*78
"
$GNRMC,053632.30,A,3355.39993,N,11818.43671,W,0.060,,061021,,,"A*73
"
$GNRMC,053632.40,A,3355.39993,N,11818.43671,W,0.087,,061021,,,"A*7D
"
$GNRMC,053632.50,A,3355.39992,N,11818.43671,W,0.101,,061021,,,"A*72
"
$GNRMC,053632.60,A,3355.39991,N,11818.43672,W,0.148,,061021,,,"A*7C
"
$GNRMC,053632.70,A,3355.39991,N,11818.43672,W,0.073,,061021,,,"A*74
"
$GNRMC,053632.80,A,3355.39990,N,11818.43672,W,0.128,,061021,,,"A*75
"
$GNRMC,053632.90,A,3355.39990,N,11818.43672,W,0.030,,061021,,,"A*7C
"
$GNRMC,053633.00,A,3355.39991,N,11818.43673,W,0.117,,061021,,,"A*70
"
$GNRMC,053633.10,A,3355.39991,N,11818.43672,W,0.036,,061021,,,"A*72
"
$GNRMC,053633.20,A,3355.39990,N,11818.43674,W,0.114,,061021,,,"A*77
"
$GNRMC,053633.30,A,3355.39990,N,11818.43674,W,0.129,,061021,,,"A*78
"
$GNRMC,053633.40,A,3355.39991,N,11818.43673,W,0.116,,061021,,,"A*75
"
$GNRMC,053633.50,A,3355.39991,N,11818.43672,W,0.107,,061021,,,"A*75
"
$GNRMC,053633.60,A,3355.39991,N,11818.43674,W,0.137,,061021,,,"A*73
"
$GNRMC,053633.70,A,3355.39991,N,11818.43674,W,0.164,,061021,,,"A*74
"
$GNRMC,053633.80,A,3355.39991,N,11818.43673,W,0.096,,061021,,,"A*70
"
$GNRMC,053633.90,A,3355.39991,N,11818.43673,W,0.059,,061021,,,"A*72
"
$GNRMC,053634.00,A,3355.39991,N,11818.43674,W,0.130,,061021,,,"A*75
"
$GNRMC,053634.10,A,3355.39990,N,11818.43674,W,0.044,,061021,,,"A*77
"
$GNRMC,053634.20,A,3355.39990,N,11818.43674,W,0.066,,061021,,,"A*74
"
$GNRMC,053634.30,A,3355.39990,N,11818.43674,W,0.147,,061021,,,"A*77
"
$GNRMC,053634.40,A,3355.39988,N,11818.43676,W,0.087,,061021,,,"A*76
"
$GNRMC,053634.50,A,3355.39987,N,11818.43675,W,0.170,,061021,,,"A*72
"
$GNRMC,053634.60,A,3355.39987,N,11818.43676,W,0.114,,061021,,,"A*70
"
$GNRMC,053634.70,A,3355.39986,N,11818.43676,W,0.064,,061021,,,"A*76
"
$GNRMC,053634.80,A,3355.39988,N,11818.43677,W,0.208,,061021,,,"A*7E
"
$GNRMC,053634.90,A,3355.39990,N,11818.43678,W,0.523,,061021,,,"A*77
"
$GNRMC,053635.00,A,3355.39993,N,11818.43677,W,0.800,43.94,061021,,,"A*5B
"
$GNRMC,053635.10,A,3355.39994,N,11818.43679,W,0.710,26.66,061021,,,"A*53
"
$GNRMC,053635.20,A,3355.39994,N,11818.43679,W,0.475,,061021,,,"A*7A
"
$GNRMC,053635.30,A,3355.39993,N,11818.43679,W,0.299,,061021,,,"A*78
"
$GNRMC,053635.40,A,3355.39993,N,11818.43678,W,0.192,,061021,,,"A*76
"
$GNRMC,053635.50,A,3355.39993,N,11818.43679,W,0.203,,061021,,,"A*7D
"
$GNRMC,053635.60,A,3355.39994,N,11818.43680,W,0.339,,061021,,,"A*77
"
$GNRMC,053635.70,A,3355.39993,N,11818.43681,W,0.170,,061021,,,"A*7F
"
$GNRMC,053635.80,A,3355.39992,N,11818.43681,W,0.120,,061021,,,"A*74
"
$GNRMC,053635.90,A,3355.39991,N,11818.43682,W,0.084,,061021,,,"A*7A
"
$GNRMC,053636.00,A,3355.39991,N,11818.43682,W,0.052,,061021,,,"A*7B
"
$GNRMC,053636.10,A,3355.39991,N,11818.43683,W,0.047,,061021,,,"A*7F
"
$GNRMC,053636.20,A,3355.39991,N,11818.43684,W,0.100,,061021,,,"A*79
"
$GNRMC,053636.30,A,3355.39990,N,11818.43684,W,0.073,,061021,,,"A*7C
"
$GNRMC,053636.40,A,3355.39990,N,11818.43684,W,0.017,,061021,,,"A*79
"
$GNRMC,053636.50,A,3355.39989,N,11818.43685,W,0.087,,061021,,,"A*78
"
$GNRMC,053636.60,A,3355.39988,N,11818.43685,W,0.103,,061021,,,"A*77
"
$GNRMC,053636.70,A,3355.39988,N,11818.43686,W,0.048,,061021,,,"A*7B
"
$GNRMC,053636.80,A,3355.39989,N,11818.43686,W,0.076,,061021,,,"A*78
"
$GNRMC,053636.90,A,3355.39988,N,11818.43686,W,0.138,,061021,,,"A*73
"
$GNRMC,053637.00,A,3355.39989,N,11818.43685,W,0.130,,061021,,,"A*71
"
$GNRMC,053637.10,A,3355.39989,N,11818.43686,W,0.075,,061021,,,"A*73
"
$GNRMC,053637.20,A,3355.39989,N,11818.43685,W,0.199,,061021,,,"A*70
"
$GNRMC,053637.30,A,3355.39990,N,11818.43684,W,0.261,,061021,,,"A*7C
"
$GNRMC,053637.40,A,3355.39990,N,11818.43684,W,0.191,,061021,,,"A*77
"
$GNRMC,053637.50,A,3355.39990,N,11818.43686,W,0.164,,061021,,,"A*7E
"
$GNRMC,053637.60,A,3355.39992,N,11818.43689,W,0.366,,061021,,,"A*70
"
$GNRMC,053637.70,A,3355.39993,N,11818.43690,W,0.479,,061021,,,"A*71
"
$GNRMC,053637.80,A,3355.39993,N,11818.43691,W,0.465,,061021,,,"A*72
"
$GNRMC,053637.90,A,3355.39993,N,11818.43691,W,0.247,,061021,,,"A*75
"
$GNRMC,053638.00,A,3355.39992,N,11818.43690,W,0.125,,061021,,,"A*74
"
$GNRMC,053638.10,A,3355.39992,N,11818.43691,W,0.149,,061021,,,"A*7E
"
$GNRMC,053638.20,A,3355.39991,N,11818.43691,W,0.070,,061021,,,"A*75
"
$GNRMC,053638.30,A,3355.39991,N,11818.43691,W,0.159,,061021,,,"A*7E
"
$GNRMC,053638.40,A,3355.39990,N,11818.43691,W,0.134,,061021,,,"A*73
"
$GNRMC,053638.50,A,3355.39990,N,11818.43692,W,0.067,,061021,,,"A*76
"
$GNRMC,053638.60,A,3355.39990,N,11818.43694,W,0.094,,061021,,,"A*7F
"
$GNRMC,053638.70,A,3355.39989,N,11818.43693,W,0.185,,061021,,,"A*70
"
$GNRMC,053638.80,A,3355.39989,N,11818.43695,W,0.041,,061021,,,"A*70
"
$GNRMC,053638.90,A,3355.39989,N,11818.43694,W,0.038,,061021,,,"A*7E
"
$GNRMC,053639.00,A,3355.39989,N,11818.43694,W,0.085,,061021,,,"A*70
"
$GNRMC,053639.10,A,3355.39989,N,11818.43694,W,0.039,,061021,,,"A*76
"
$GNRMC,053639.20,A,3355.39989,N,11818.43695,W,0.086,,061021,,,"A*70
"
$GNRMC,053639.30,A,3355.39988,N,11818.43694,W,0.337,,061021,,,"A*78
"
$GNRMC,053639.40,A,3355.39989,N,11818.43696,W,0.289,,061021,,,"A*78
"
$GNRMC,053639.50,A,3355.39990,N,11818.43695,W,0.223,,061021,,,"A*72
"
$GNRMC,053639.60,A,3355.39989,N,11818.43696,W,0.115,,061021,,,"A*7C
"
$GNRMC,053639.70,A,3355.39988,N,11818.43694,W,0.179,,061021,,,"A*74
"
$GNRMC,053639.80,A,3355.39988,N,11818.43694,W,0.125,,061021,,,"A*72
"
$GNRMC,053639.90,A,3355.39989,N,11818.43695,W,0.209,,061021,,,"A*7E
"
$GNRMC,053640.00,A,3355.39988,N,11818.43695,W,0.107,,061021,,,"A*75
"
$GNRMC,053640.10,A,3355.39988,N,11818.43695,W,0.060,,061021,,,"A*74
"
$GNRMC,053640.20,A,3355.39987,N,11818.43696,W,0.021,,061021,,,"A*7E
"
$GNRMC,053640.30,A,3355.39987,N,11818.43698,W,0.149,,061021,,,"A*7E
"
$GNRMC,053640.40,A,3355.39988,N,11818.43695,W,0.081,,061021,,,"A*7E
"
$GNRMC,053640.50,A,3355.39986,N,11818.43696,W,0.096,,061021,,,"A*74
"
$GNRMC,053640.60,A,3355.39986,N,11818.43696,W,0.031,,061021,,,"A*7A
"
$GNRMC,053640.70,A,3355.39986,N,11818.43696,W,0.054,,061021,,,"A*78
"
$GNRMC,053640.80,A,3355.39987,N,11818.43694,W,0.139,,061021,,,"A*7E
"
$GNRMC,053640.90,A,3355.39987,N,11818.43695,W,0.272,,061021,,,"A*72
"
$GNRMC,053641.00,A,3355.39988,N,11818.43696,W,0.328,,061021,,,"A*78
"
$GNRMC,053641.10,A,3355.39987,N,11818.43697,W,0.155,,061021,,,"A*7F
"
$GNRMC,053641.20,A,3355.39985,N,11818.43696,W,0.214,,061021,,,"A*79
"
$GNRMC,053641.30,A,3355.39984,N,11818.43697,W,0.104,,061021,,,"A*7A
"
$GNRMC,053641.40,A,3355.39982,N,11818.43698,W,0.275,,061021,,,"A*71
"
$GNRMC,053641.50,A,3355.39982,N,11818.43698,W,0.249,,061021,,,"A*7F
"
$GNRMC,053641.60,A,3355.39983,N,11818.43700,W,0.243,,061021,,,"A*77
"
$GNRMC,053641.70,A,3355.39981,N,11818.43700,W,0.206,,061021,,,"A*75
"
$GNRMC,053641.80,A,3355.39980,N,11818.43700,W,0.132,,061021,,,"A*7F
"
$GNRMC,053641.90,A,3355.39980,N,11818.43700,W,0.022,,061021,,,"A*7E
"
$GNRMC,053642.00,A,3355.39980,N,11818.43700,W,0.089,,061021,,,"A*75
"
$GNRMC,053642.10,A,3355.39979,N,11818.43701,W,0.200,,061021,,,"A*70
"
$GNRMC,053642.20,A,3355.39979,N,11818.43701,W,0.065,,061021,,,"A*72
"
$GNRMC,053642.30,A,3355.39980,N,11818.43700,W,0.047,,061021,,,"A*74
"
$GNRMC,053642.40,A,3355.39979,N,11818.43700,W,0.099,,061021,,,"A*76
"
$GNRMC,053642.50,A,3355.39979,N,11818.43700,W,0.097,,061021,,,"A*79
"
$GNRMC,053642.60,A,3355.39980,N,11818.43699,W,0.036,,061021,,,"A*76
"
$GNRMC,053642.70,A,3355.39979,N,11818.43699,W,0.174,,061021,,,"A*76
"
$GNRMC,053642.80,A,3355.39980,N,11818.43698,W,0.028,,061021,,,"A*76
"
$GNRMC,053642.90,A,3355.39981,N,11818.43699,W,0.143,,061021,,,"A*7B
"
$GNRMC,053643.00,A,3355.39980,N,11818.43698,W,0.020,,061021,,,"A*77
"
$GNRMC,053643.10,A,3355.39980,N,11818.43698,W,0.058,,061021,,,"A*79
"
$GNRMC,053643.20,A,3355.39980,N,11818.43698,W,0.072,,061021,,,"A*72
"
$GNRMC,053643.30,A,3355.39981,N,11818.43697,W,0.001,,061021,,,"A*79
"
$GNRMC,053643.40,A,3355.39981,N,11818.43697,W,0.174,,061021,,,"A*7D
"
$GNRMC,053643.50,A,3355.39981,N,11818.43697,W,0.198,,061021,,,"A*7E
"
$GNRMC,053643.60,A,3355.39981,N,11818.43697,W,0.156,,061021,,,"A*7F
"
$GNRMC,053643.70,A,3355.39981,N,11818.43698,W,0.074,,061021,,,"A*70
"
$GNRMC,053643.80,A,3355.39980,N,11818.43697,W,0.178,,061021,,,"A*7C
"
$GNRMC,053643.90,A,3355.39981,N,11818.43696,W,0.075,,061021,,,"A*71
"
$GNRMC,053644.00,A,3355.39980,N,11818.43697,W,0.131,,061021,,,"A*7E
"
$GNRMC,053644.10,A,3355.39980,N,11818.43696,W,0.155,,061021,,,"A*7C
"
$GNRMC,053644.20,A,3355.39981,N,11818.43696,W,0.158,,061021,,,"A*73
"
$GNRMC,053644.30,A,3355.39980,N,11818.43699,W,0.193,,061021,,,"A*7B
"
$GNRMC,053644.40,A,3355.39982,N,11818.43697,W,0.101,,061021,,,"A*7B
"
$GNRMC,053644.50,A,3355.39982,N,11818.43695,W,0.051,,061021,,,"A*7C
"
$GNRMC,053644.60,A,3355.39982,N,11818.43695,W,0.090,,061021,,,"A*72
"
$GNRMC,053644.70,A,3355.39981,N,11818.43696,W,0.014,,061021,,,"A*7F
"
$GNRMC,053644.80,A,3355.39981,N,11818.43697,W,0.049,,061021,,,"A*79
"
$GNRMC,053644.90,A,3355.39981,N,11818.43698,W,0.107,,061021,,,"A*7C
"
$GNRMC,053645.00,A,3355.39980,N,11818.43698,W,0.048,,061021,,,"A*7F
"
$GNRMC,053645.10,A,3355.39980,N,11818.43698,W,0.051,,061021,,,"A*76
"
$GNRMC,053645.20,A,3355.39980,N,11818.43698,W,0.018,,061021,,,"A*78
"
$GNRMC,053645.30,A,3355.39981,N,11818.43698,W,0.071,,061021,,,"A*77
"
$GNRMC,053645.40,A,3355.39981,N,11818.43698,W,0.109,,061021,,,"A*7E
"
$GNRMC,053645.50,A,3355.39981,N,11818.43698,W,0.099,,061021,,,"A*77
"
$GNRMC,053645.60,A,3355.39981,N,11818.43698,W,0.081,,061021,,,"A*7D
"
$GNRMC,053645.70,A,3355.39980,N,11818.43698,W,0.062,,061021,,,"A*70
"
$GNRMC,053645.80,A,3355.39981,N,11818.43697,W,0.039,,061021,,,"A*7F
"
$GNRMC,053645.90,A,3355.39979,N,11818.43699,W,0.151,,061021,,,"A*78
"
$GNRMC,053646.00,A,3355.39979,N,11818.43698,W,0.161,,061021,,,"A*70
"
$GNRMC,053646.10,A,3355.39980,N,11818.43697,W,0.054,,061021,,,"A*7F
"
$GNRMC,053646.20,A,3355.39981,N,11818.43698,W,0.164,,061021,,,"A*70
"
$GNRMC,053646.30,A,3355.39982,N,11818.43697,W,0.086,,061021,,,"A*70
"
$GNRMC,053646.40,A,3355.39982,N,11818.43697,W,0.068,,061021,,,"A*77
"
$GNRMC,053646.50,A,3355.39983,N,11818.43697,W,0.151,,061021,,,"A*7C
"
$GNRMC,053646.60,A,3355.39982,N,11818.43696,W,0.094,,061021,,,"A*77
"
$GNRMC,053646.70,A,3355.39982,N,11818.43696,W,0.046,,061021,,,"A*79
"
$GNRMC,053646.80,A,3355.39983,N,11818.43696,W,0.054,,061021,,,"A*74
"
$GNRMC,053646.90,A,3355.39983,N,11818.43696,W,0.080,,061021,,,"A*7C
"
$GNRMC,053647.00,A,3355.39983,N,11818.43695,W,0.092,,061021,,,"A*74
"
$GNRMC,053647.10,A,3355.39983,N,11818.43696,W,0.056,,061021,,,"A*7E
"
$GNRMC,053647.20,A,3355.39983,N,11818.43695,W,0.065,,061021,,,"A*7E
"
$GNRMC,053647.30,A,3355.39983,N,11818.43696,W,0.036,,061021,,,"A*7A
"
$GNRMC,053647.40,A,3355.39983,N,11818.43695,W,0.084,,061021,,,"A*77
"
$GNRMC,053647.50,A,3355.39983,N,11818.43695,W,0.052,,061021,,,"A*7D
"
$GNRMC,053647.60,A,3355.39983,N,11818.43693,W,0.049,,061021,,,"A*72
"
$GNRMC,053647.70,A,3355.39983,N,11818.43693,W,0.027,,061021,,,"A*7B
"
$GNRMC,053647.80,A,3355.39984,N,11818.43693,W,0.199,,061021,,,"A*77
"
$GNRMC,053647.90,A,3355.39984,N,11818.43692,W,0.056,,061021,,,"A*75
"
$GNRMC,053648.00,A,3355.39984,N,11818.43693,W,0.060,,061021,,,"A*77
"
$GNRMC,053648.10,A,3355.39983,N,11818.43693,W,0.109,,061021,,,"A*7F
"
$GNRMC,053648.20,A,3355.39982,N,11818.43693,W,0.175,,061021,,,"A*76
"
$GNRMC,053648.30,A,3355.39982,N,11818.43694,W,0.015,,061021,,,"A*77
"
$GNRMC,053648.40,A,3355.39982,N,11818.43693,W,0.026,,061021,,,"A*77
"
$GNRMC,053648.50,A,3355.39982,N,11818.43695,W,0.130,,061021,,,"A*76
"
$GNRMC,053648.60,A,3355.39981,N,11818.43694,W,0.075,,061021,,,"A*77
"
$GNRMC,053648.70,A,3355.39981,N,11818.43695,W,0.091,,061021,,,"A*7D
"
$GNRMC,053648.80,A,3355.39981,N,11818.43696,W,0.128,,061021,,,"A*72
"
$GNRMC,053648.90,A,3355.39980,N,11818.43696,W,0.165,,061021,,,"A*7B
"
$GNRMC,053649.00,A,3355.39980,N,11818.43697,W,0.078,,061021,,,"A*7F
"
$GNRMC,053649.10,A,3355.39979,N,11818.43697,W,0.147,,061021,,,"A*75
"
$GNRMC,053649.20,A,3355.39978,N,11818.43697,W,0.389,,061021,,,"A*77
"
$GNRMC,053649.30,A,3355.39977,N,11818.43699,W,0.365,,061021,,,"A*75
"
$GNRMC,053649.40,A,3355.39978,N,11818.43700,W,0.281,,061021,,,"A*77
"
$GNRMC,053649.50,A,3355.39978,N,11818.43699,W,0.173,,061021,,,"A*79
"
$GNRMC,053649.60,A,3355.39976,N,11818.43699,W,0.247,,061021,,,"A*70
"
$GNRMC,053649.70,A,3355.39977,N,11818.43699,W,0.137,,061021,,,"A*74
"
$GNRMC,053649.80,A,3355.39977,N,11818.43699,W,0.058,,061021,,,"A*73
"
$GNRMC,053649.90,A,3355.39975,N,11818.43700,W,0.115,,061021,,,"A*79
"
$GNRMC,053650.00,A,3355.39976,N,11818.43701,W,0.119,,061021,,,"A*76
"
$GNRMC,053650.10,A,3355.39976,N,11818.43700,W,0.105,,061021,,,"A*7B
"
$GNRMC,053650.20,A,3355.39975,N,11818.43696,W,0.636,,061021,,,"A*72
"
$GNRMC,053650.30,A,3355.39976,N,11818.43696,W,0.587,,061021,,,"A*79
"
$GNRMC,053650.40,A,3355.39976,N,11818.43696,W,0.215,,061021,,,"A*72
"
$GNRMC,053650.50,A,3355.39973,N,11818.43695,W,0.188,,061021,,,"A*72
"
$GNRMC,053650.60,A,3355.39973,N,11818.43695,W,0.076,,061021,,,"A*71
"
$GNRMC,053650.70,A,3355.39974,N,11818.43694,W,0.144,,061021,,,"A*76
"
$GNRMC,053650.80,A,3355.39973,N,11818.43694,W,0.109,,061021,,,"A*77
"
$GNRMC,053650.90,A,3355.39973,N,11818.43693,W,0.048,,061021,,,"A*75
"
$GNRMC,053651.00,A,3355.39973,N,11818.43691,W,0.074,,061021,,,"A*70
"
$GNRMC,053651.10,A,3355.39973,N,11818.43690,W,0.075,,061021,,,"A*71
"
$GNRMC,053651.20,A,3355.39972,N,11818.43689,W,0.057,,061021,,,"A*7B
"
$GNRMC,053651.30,A,3355.39973,N,11818.43688,W,0.087,,061021,,,"A*77
"
$GNRMC,053651.40,A,3355.39973,N,11818.43688,W,0.072,,061021,,,"A*7A
"
$GNRMC,053651.50,A,3355.39973,N,11818.43686,W,0.101,,061021,,,"A*70
"
$GNRMC,053651.60,A,3355.39973,N,11818.43686,W,0.046,,061021,,,"A*71
"
$GNRMC,053651.70,A,3355.39973,N,11818.43685,W,0.045,,061021,,,"A*70
"
$GNRMC,053651.80,A,3355.39973,N,11818.43683,W,0.014,,061021,,,"A*7D
"
$GNRMC,053651.90,A,3355.39973,N,11818.43684,W,0.089,,061021,,,"A*7F
"
$GNRMC,053652.00,A,3355.39974,N,11818.43683,W,0.041,,061021,,,"A*71
"
$GNRMC,053652.10,A,3355.39974,N,11818.43682,W,0.077,,061021,,,"A*74
"
$GNRMC,053652.20,A,3355.39975,N,11818.43682,W,0.082,,061021,,,"A*7C
"
$GNRMC,053652.30,A,3355.39975,N,11818.43681,W,0.099,,061021,,,"A*74
"
$GNRMC,053652.40,A,3355.39975,N,11818.43681,W,0.132,,061021,,,"A*73
"
$GNRMC,053652.50,A,3355.39975,N,11818.43681,W,0.105,,061021,,,"A*76
"
$GNRMC,053652.60,A,3355.39975,N,11818.43682,W,0.095,,061021,,,"A*7E
"
$GNRMC,053652.70,A,3355.39975,N,11818.43681,W,0.154,,061021,,,"A*70
"
$GNRMC,053652.80,A,3355.39976,N,11818.43681,W,0.140,,061021,,,"A*79
"
$GNRMC,053652.90,A,3355.39976,N,11818.43682,W,0.054,,061021,,,"A*7F
"
$GNRMC,053653.00,A,3355.39975,N,11818.43682,W,0.117,,061021,,,"A*72
"
$GNRMC,053653.10,A,3355.39976,N,11818.43682,W,0.170,,061021,,,"A*71
"
$GNRMC,053653.20,A,3355.39976,N,11818.43682,W,0.096,,061021,,,"A*7B
"
$GNRMC,053653.30,A,3355.39976,N,11818.43682,W,0.098,,061021,,,"A*74
"
$GNRMC,053653.40,A,3355.39975,N,11818.43683,W,0.039,,061021,,,"A*7A
"
$GNRMC,053653.50,A,3355.39975,N,11818.43682,W,0.014,,061021,,,"A*75
"
$GNRMC,053653.60,A,3355.39975,N,11818.43683,W,0.078,,061021,,,"A*7D
"
$GNRMC,053653.70,A,3355.39975,N,11818.43683,W,0.039,,061021,,,"A*79
"
$GNRMC,053653.80,A,3355.39975,N,11818.43684,W,0.183,,061021,,,"A*71
"
$GNRMC,053653.90,A,3355.39974,N,11818.43685,W,0.256,,061021,,,"A*7B
"
$GNRMC,053654.00,A,3355.39973,N,11818.43686,W,0.267,,061021,,,"A*73
"
$GNRMC,053654.10,A,3355.39974,N,11818.43685,W,0.081,,061021,,,"A*7C
"
$GNRMC,053654.20,A,3355.39973,N,11818.43686,W,0.066,,061021,,,"A*72
"
$GNRMC,053654.30,A,3355.39972,N,11818.43686,W,0.098,,061021,,,"A*73
"
$GNRMC,053654.40,A,3355.39973,N,11818.43686,W,0.071,,061021,,,"A*72
"
$GNRMC,053654.50,A,3355.39972,N,11818.43686,W,0.061,,061021,,,"A*73
"
$GNRMC,053654.60,A,3355.39973,N,11818.43686,W,0.094,,061021,,,"A*7B
"
$GNRMC,053654.70,A,3355.39972,N,11818.43686,W,0.097,,061021,,,"A*78
"
$GNRMC,053654.80,A,3355.39973,N,11818.43685,W,0.250,,061021,,,"A*7C
"
$GNRMC,053654.90,A,3355.39973,N,11818.43686,W,0.148,,061021,,,"A*74
"
$GNRMC,053655.00,A,3355.39973,N,11818.43687,W,0.112,,061021,,,"A*72
"
$GNRMC,053655.10,A,3355.39973,N,11818.43686,W,0.027,,061021,,,"A*75
"
$GNRMC,053655.20,A,3355.39973,N,11818.43685,W,0.127,,061021,,,"A*74
"
$GNRMC,053655.30,A,3355.39973,N,11818.43687,W,0.062,,061021,,,"A*77
"
$GNRMC,053655.40,A,3355.39974,N,11818.43688,W,0.207,,061021,,,"A*79
"
$GNRMC,053655.50,A,3355.39973,N,11818.43688,W,0.074,,061021,,,"A*79
"
$GNRMC,053655.60,A,3355.39973,N,11818.43688,W,0.024,,061021,,,"A*7F
"
$GNRMC,053655.70,A,3355.39973,N,11818.43688,W,0.047,,061021,,,"A*7B
"
$GNRMC,053655.80,A,3355.39973,N,11818.43689,W,0.161,,061021,,,"A*70
"
$GNRMC,053655.90,A,3355.39973,N,11818.43688,W,0.065,,061021,,,"A*75
"
$GNRMC,053656.00,A,3355.39973,N,11818.43689,W,0.181,,061021,,,"A*75
"
$GNRMC,053656.10,A,3355.39973,N,11818.43689,W,0.176,,061021,,,"A*7C
"
$GNRMC,053656.20,A,3355.39972,N,11818.43690,W,0.134,,061021,,,"A*70
"
$GNRMC,053656.30,A,3355.39971,N,11818.43689,W,0.098,,061021,,,"A*7D
"
$GNRMC,053656.40,A,3355.39970,N,11818.43688,W,0.133,,061021,,,"A*7A
"
$GNRMC,053656.50,A,3355.39971,N,11818.43688,W,0.072,,061021,,,"A*7E
"
$GNRMC,053656.60,A,3355.39970,N,11818.43689,W,0.022,,061021,,,"A*78
"
$GNRMC,053656.70,A,3355.39970,N,11818.43690,W,0.139,,061021,,,"A*7A
"
$GNRMC,053656.80,A,3355.39970,N,11818.43688,W,0.050,,061021,,,"A*72
"
$GNRMC,053656.90,A,3355.39970,N,11818.43687,W,0.122,,061021,,,"A*78
"
$GNRMC,053657.00,A,3355.39970,N,11818.43689,W,0.095,,061021,,,"A*73
"
$GNRMC,053657.10,A,3355.39970,N,11818.43689,W,0.128,,061021,,,"A*75
"
$GNRMC,053657.20,A,3355.39969,N,11818.43689,W,0.087,,061021,,,"A*7A
"
$GNRMC,053657.30,A,3355.39969,N,11818.43689,W,0.039,,061021,,,"A*7E
"
$GNRMC,053657.40,A,3355.39969,N,11818.43688,W,0.032,,061021,,,"A*73
"
$GNRMC,053657.50,A,3355.39970,N,11818.43687,W,0.123,,061021,,,"A*74
"
$GNRMC,053657.60,A,3355.39970,N,11818.43688,W,0.175,,061021,,,"A*7B
"
$GNRMC,053657.70,A,3355.39970,N,11818.43687,W,0.059,,061021,,,"A*7A
"
$GNRMC,053657.80,A,3355.39969,N,11818.43687,W,0.140,,061021,,,"A*74
"
$GNRMC,053657.90,A,3355.39970,N,11818.43688,W,0.165,,061021,,,"A*75
"
$GNRMC,053658.00,A,3355.39970,N,11818.43687,W,0.126,,061021,,,"A*7B
"
$GNRMC,053658.10,A,3355.39970,N,11818.43687,W,0.106,,061021,,,"A*78
"
$GNRMC,053658.20,A,3355.39970,N,11818.43687,W,0.026,,061021,,,"A*78
"
$GNRMC,053658.30,A,3355.39970,N,11818.43687,W,0.075,,061021,,,"A*7F
"
$GNRMC,053658.40,A,3355.39970,N,11818.43687,W,0.082,,061021,,,"A*70
"
$GNRMC,053658.50,A,3355.39970,N,11818.43687,W,0.096,,061021,,,"A*74
"
$GNRMC,053658.60,A,3355.39970,N,11818.43687,W,0.095,,061021,,,"A*74
"
$GNRMC,053658.70,A,3355.39971,N,11818.43686,W,0.118,,061021,,,"A*71
"
$GNRMC,053658.80,A,3355.39971,N,11818.43686,W,0.123,,061021,,,"A*76
"
$GNRMC,053658.90,A,3355.39971,N,11818.43686,W,0.114,,061021,,,"A*73
"
$GNRMC,053659.00,A,3355.39971,N,11818.43686,W,0.106,,061021,,,"A*78
"
$GNRMC,053659.10,A,3355.39970,N,11818.43685,W,0.080,,061021,,,"A*74
"
$GNRMC,053659.20,A,3355.39971,N,11818.43684,W,0.139,,061021,,,"A*74
"
$GNRMC,053659.30,A,3355.39970,N,11818.43685,W,0.051,,061021,,,"A*7A
"
$GNRMC,053659.40,A,3355.39970,N,11818.43685,W,0.081,,061021,,,"A*70
"
$GNRMC,053659.50,A,3355.39971,N,11818.43684,W,0.122,,061021,,,"A*79
"
$GNRMC,053659.60,A,3355.39970,N,11818.43684,W,0.047,,061021,,,"A*79
"
$GNRMC,053659.70,A,3355.39970,N,11818.43686,W,0.043,,061021,,,"A*7E
"
$GNRMC,053659.80,A,3355.39969,N,11818.43685,W,0.143,,061021,,,"A*7B
"
$GNRMC,053659.90,A,3355.39968,N,11818.43686,W,0.080,,061021,,,"A*76
"
$GNRMC,053700.00,A,3355.39968,N,11818.43686,W,0.052,,061021,,,"A*7D
"
$GNRMC,053700.10,A,3355.39967,N,11818.43686,W,0.071,,061021,,,"A*72
"
$GNRMC,053700.20,A,3355.39966,N,11818.43687,W,0.062,,061021,,,"A*73
"
$GNRMC,053700.30,A,3355.39966,N,11818.43688,W,0.066,,061021,,,"A*79
"
$GNRMC,053700.40,A,3355.39965,N,11818.43687,W,0.109,,061021,,,"A*7A
"
$GNRMC,053700.50,A,3355.39965,N,11818.43687,W,0.051,,061021,,,"A*77
"
$GNRMC,053700.60,A,3355.39964,N,11818.43688,W,0.043,,061021,,,"A*79
"
$GNRMC,053700.70,A,3355.39965,N,11818.43687,W,0.087,,061021,,,"A*7E
"
$GNRMC,053700.80,A,3355.39964,N,11818.43688,W,0.092,,061021,,,"A*7B
"
$GNRMC,053700.90,A,3355.39964,N,11818.43689,W,0.048,,061021,,,"A*7C
"
$GNRMC,053701.00,A,3355.39964,N,11818.43689,W,0.065,,061021,,,"A*7B
"
$GNRMC,053701.10,A,3355.39964,N,11818.43689,W,0.052,,061021,,,"A*7E
"
$GNRMC,053701.20,A,3355.39963,N,11818.43689,W,0.112,,061021,,,"A*7F
"
$GNRMC,053701.30,A,3355.39963,N,11818.43690,W,0.067,,061021,,,"A*75
"
$GNRMC,053701.40,A,3355.39961,N,11818.43692,W,0.073,,061021,,,"A*77
"
$GNRMC,053701.50,A,3355.39960,N,11818.43692,W,0.146,,061021,,,"A*70
"
$GNRMC,053701.60,A,3355.39960,N,11818.43693,W,0.074,,061021,,,"A*72
"
$GNRMC,053701.70,A,3355.39959,N,11818.43694,W,0.126,,061021,,,"A*78
"
$GNRMC,053701.80,A,3355.39959,N,11818.43695,W,0.174,,061021,,,"A*71
"
$GNRMC,053701.90,A,3355.39957,N,11818.43698,W,0.086,,061021,,,"A*7F
"
$GNRMC,053702.00,A,3355.39956,N,11818.43698,W,0.097,,061021,,,"A*74
"
$GNRMC,053702.10,A,3355.39954,N,11818.43699,W,0.130,,061021,,,"A*7A
"
$GNRMC,053702.20,A,3355.39954,N,11818.43699,W,0.131,,061021,,,"A*78
"
$GNRMC,053702.30,A,3355.39954,N,11818.43702,W,0.179,,061021,,,"A*76
"
$GNRMC,053702.40,A,3355.39954,N,11818.43702,W,0.130,,061021,,,"A*7C
"
$GNRMC,053702.50,A,3355.39953,N,11818.43702,W,0.089,,061021,,,"A*79
"
$GNRMC,053702.60,A,3355.39953,N,11818.43703,W,0.142,,061021,,,"A*7D
"
$GNRMC,053702.70,A,3355.39952,N,11818.43705,W,0.117,,061021,,,"A*7B
"
$GNRMC,053702.80,A,3355.39952,N,11818.43704,W,0.045,,061021,,,"A*73
"
$GNRMC,053702.90,A,3355.39951,N,11818.43705,W,0.059,,061021,,,"A*7D
"
$GNRMC,053703.00,A,3355.39950,N,11818.43706,W,0.065,,061021,,,"A*78
"
$GNRMC,053703.10,A,3355.39949,N,11818.43707,W,0.075,,061021,,,"A*71
"
$GNRMC,053703.20,A,3355.39948,N,11818.43709,W,0.042,,061021,,,"A*79
"
$GNRMC,053703.30,A,3355.39947,N,11818.43708,W,0.139,,061021,,,"A*7B
"
$GNRMC,053703.40,A,3355.39946,N,11818.43709,W,0.113,,061021,,,"A*74
"
$GNRMC,053703.50,A,3355.39945,N,11818.43710,W,0.058,,061021,,,"A*70
"
$GNRMC,053703.60,A,3355.39945,N,11818.43711,W,0.082,,061021,,,"A*75
"
$GNRMC,053703.70,A,3355.39945,N,11818.43709,W,0.039,,061021,,,"A*7D
"
$GNRMC,053703.80,A,3355.39945,N,11818.43711,W,0.080,,061021,,,"A*79
"
$GNRMC,053703.90,A,3355.39945,N,11818.43711,W,0.054,,061021,,,"A*71
"
$GNRMC,053704.00,A,3355.39946,N,11818.43711,W,0.209,,061021,,,"A*76
"
$GNRMC,053704.10,A,3355.39945,N,11818.43712,W,0.008,,061021,,,"A*74
"
$GNRMC,053704.20,A,3355.39944,N,11818.43713,W,0.106,,061021,,,"A*78
"
$GNRMC,053704.30,A,3355.39944,N,11818.43713,W,0.064,,061021,,,"A*7C
"
$GNRMC,053704.40,A,3355.39944,N,11818.43713,W,0.093,,061021,,,"A*73
"
$GNRMC,053704.50,A,3355.39944,N,11818.43714,W,0.020,,061021,,,"A*7D
"
$GNRMC,053704.60,A,3355.39944,N,11818.43714,W,0.039,,061021,,,"A*76
"
$GNRMC,053704.70,A,3355.39944,N,11818.43716,W,0.096,,061021,,,"A*70
"
$GNRMC,053704.80,A,3355.39942,N,11818.43717,W,0.089,,061021,,,"A*76
"
$GNRMC,053704.90,A,3355.39942,N,11818.43716,W,0.062,,061021,,,"A*73
"
$GNRMC,053705.00,A,3355.39941,N,11818.43717,W,0.123,,061021,,,"A*7D
"
$GNRMC,053705.10,A,3355.39941,N,11818.43717,W,0.026,,061021,,,"A*78
"
$GNRMC,053705.20,A,3355.39939,N,11818.43720,W,0.239,,061021,,,"A*7C
"
$GNRMC,053705.30,A,3355.39939,N,11818.43719,W,0.065,,061021,,,"A*7C
"
$GNRMC,053705.40,A,3355.39939,N,11818.43720,W,0.056,,061021,,,"A*71
"
$GNRMC,053705.50,A,3355.39939,N,11818.43721,W,0.098,,061021,,,"A*73
"
$GNRMC,053705.60,A,3355.39938,N,11818.43721,W,0.167,,061021,,,"A*70
"
$GNRMC,053705.70,A,3355.39938,N,11818.43721,W,0.119,,061021,,,"A*78
"
$GNRMC,053705.80,A,3355.39938,N,11818.43722,W,0.044,,061021,,,"A*7D
"
$GNRMC,053705.90,A,3355.39938,N,11818.43723,W,0.031,,061021,,,"A*7F
"
$GNRMC,053706.00,A,3355.39937,N,11818.43723,W,0.021,,061021,,,"A*7B
"
$GNRMC,053706.10,A,3355.39937,N,11818.43724,W,0.125,,061021,,,"A*78
"
$GNRMC,053706.20,A,3355.39937,N,11818.43724,W,0.068,,061021,,,"A*73
"
$GNRMC,053706.30,A,3355.39936,N,11818.43725,W,0.105,,061021,,,"A*78
"
$GNRMC,053706.40,A,3355.39935,N,11818.43726,W,0.023,,061021,,,"A*7A
"
$GNRMC,053706.50,A,3355.39936,N,11818.43726,W,0.100,,061021,,,"A*78
"
$GNRMC,053706.60,A,3355.39935,N,11818.43727,W,0.080,,061021,,,"A*70
"
$GNRMC,053706.70,A,3355.39935,N,11818.43727,W,0.099,,061021,,,"A*79
"
$GNRMC,053706.80,A,3355.39934,N,11818.43728,W,0.084,,061021,,,"A*74
"
$GNRMC,053706.90,A,3355.39934,N,11818.43729,W,0.026,,061021,,,"A*7C
"
$GNRMC,053707.00,A,3355.39933,N,11818.43730,W,0.131,,061021,,,"A*7C
"
$GNRMC,053707.10,A,3355.39933,N,11818.43730,W,0.090,,061021,,,"A*77
"
$GNRMC,053707.20,A,3355.39933,N,11818.43730,W,0.063,,061021,,,"A*78
"
$GNRMC,053707.30,A,3355.39933,N,11818.43731,W,0.078,,061021,,,"A*72
"
$GNRMC,053707.40,A,3355.39932,N,11818.43731,W,0.031,,061021,,,"A*79
"
$GNRMC,053707.50,A,3355.39931,N,11818.43732,W,0.072,,061021,,,"A*7F
"
$GNRMC,053707.60,A,3355.39930,N,11818.43734,W,0.127,,061021,,,"A*7A
"
$GNRMC,053707.70,A,3355.39930,N,11818.43733,W,0.054,,061021,,,"A*79
"
$GNRMC,053707.80,A,3355.39930,N,11818.43734,W,0.089,,061021,,,"A*71
"
$GNRMC,053707.90,A,3355.39930,N,11818.43733,W,0.073,,061021,,,"A*72
"
$GNRMC,053708.00,A,3355.39929,N,11818.43734,W,0.059,,061021,,,"A*73
"
$GNRMC,053708.10,A,3355.39929,N,11818.43735,W,0.087,,061021,,,"A*70
"
$GNRMC,053708.20,A,3355.39928,N,11818.43735,W,0.149,,061021,,,"A*71
"
$GNRMC,053708.30,A,3355.39928,N,11818.43736,W,0.070,,061021,,,"A*78
"
$GNRMC,053708.40,A,3355.39929,N,11818.43735,W,0.154,,061021,,,"A*7A
"
$GNRMC,053708.50,A,3355.39928,N,11818.43736,W,0.016,,061021,,,"A*7E
"
$GNRMC,053708.60,A,3355.39927,N,11818.43736,W,0.009,,061021,,,"A*7C
"
$GNRMC,053708.70,A,3355.39926,N,11818.43737,W,0.039,,061021,,,"A*7E
"
$GNRMC,053708.80,A,3355.39924,N,11818.43738,W,0.148,,061021,,,"A*7B
"
$GNRMC,053708.90,A,3355.39924,N,11818.43738,W,0.134,,061021,,,"A*71
"
$GNRMC,053709.00,A,3355.39922,N,11818.43739,W,0.223,,061021,,,"A*7B
"
$GNRMC,053709.10,A,3355.39920,N,11818.43739,W,0.316,,061021,,,"A*7F
"
$GNRMC,053709.20,A,3355.39919,N,11818.43739,W,0.178,,061021,,,"A*7C
"
$GNRMC,053709.30,A,3355.39919,N,11818.43739,W,0.103,,061021,,,"A*71
"
$GNRMC,053709.40,A,3355.39918,N,11818.43739,W,0.100,,061021,,,"A*74
"
$GNRMC,053709.50,A,3355.39918,N,11818.43739,W,0.062,,061021,,,"A*70
"
$GNRMC,053709.60,A,3355.39917,N,11818.43739,W,0.049,,061021,,,"A*75
"
$GNRMC,053709.70,A,3355.39917,N,11818.43740,W,0.131,,061021,,,"A*74
"
$GNRMC,053709.80,A,3355.39916,N,11818.43739,W,0.148,,061021,,,"A*7A
"
$GNRMC,053709.90,A,3355.39916,N,11818.43740,W,0.080,,061021,,,"A*70
"
$GNRMC,053710.00,A,3355.39917,N,11818.43739,W,0.067,,061021,,,"A*77
"
$GNRMC,053710.10,A,3355.39917,N,11818.43738,W,0.126,,061021,,,"A*73
"
$GNRMC,053710.20,A,3355.39916,N,11818.43739,W,0.114,,061021,,,"A*71
"
$GNRMC,053710.30,A,3355.39915,N,11818.43739,W,0.150,,061021,,,"A*73
"
$GNRMC,053710.40,A,3355.39916,N,11818.43739,W,0.062,,061021,,,"A*77
"
$GNRMC,053710.50,A,3355.39913,N,11818.43739,W,0.276,,061021,,,"A*74
"
$GNRMC,053710.60,A,3355.39913,N,11818.43739,W,0.135,,061021,,,"A*73
"
$GNRMC,053710.70,A,3355.39914,N,11818.43740,W,0.016,,061021,,,"A*7B
"
$GNRMC,053710.80,A,3355.39914,N,11818.43739,W,0.068,,061021,,,"A*73
"
$GNRMC,053710.90,A,3355.39914,N,11818.43739,W,0.048,,061021,,,"A*70
"
$GNRMC,053711.00,A,3355.39914,N,11818.43739,W,0.065,,061021,,,"A*77
"
$GNRMC,053711.10,A,3355.39914,N,11818.43739,W,0.057,,061021,,,"A*77
"
$GNRMC,053711.20,A,3355.39914,N,11818.43739,W,0.096,,061021,,,"A*79
"
$GNRMC,053711.30,A,3355.39915,N,11818.43738,W,0.040,,061021,,,"A*73
"
$GNRMC,053711.40,A,3355.39916,N,11818.43737,W,0.108,,061021,,,"A*75
"
$GNRMC,053711.50,A,3355.39917,N,11818.43738,W,0.224,,061021,,,"A*77
"
$GNRMC,053711.60,A,3355.39915,N,11818.43738,W,0.088,,061021,,,"A*72
"
$GNRMC,053711.70,A,3355.39916,N,11818.43738,W,0.072,,061021,,,"A*75
"
$GNRMC,053711.80,A,3355.39915,N,11818.43737,W,0.080,,061021,,,"A*7B
"
$GNRMC,053711.90,A,3355.39917,N,11818.43737,W,0.106,,061021,,,"A*77
"
$GNRMC,053712.00,A,3355.39917,N,11818.43737,W,0.136,,061021,,,"A*7E
"
$GNRMC,053712.10,A,3355.39917,N,11818.43736,W,0.084,,061021,,,"A*76
"
$GNRMC,053712.20,A,3355.39917,N,11818.43736,W,0.063,,061021,,,"A*7C
"
$GNRMC,053712.30,A,3355.39917,N,11818.43736,W,0.093,,061021,,,"A*72
"
$GNRMC,053712.40,A,3355.39917,N,11818.43734,W,0.319,,061021,,,"A*76
"
$GNRMC,053712.50,A,3355.39916,N,11818.43736,W,0.363,,061021,,,"A*79
"
$GNRMC,053712.60,A,3355.39916,N,11818.43736,W,0.344,,061021,,,"A*7F
"
$GNRMC,053712.70,A,3355.39917,N,11818.43736,W,0.275,,061021,,,"A*7C
"
$GNRMC,053712.80,A,3355.39917,N,11818.43734,W,0.234,,061021,,,"A*74
"
$GNRMC,053712.90,A,3355.39916,N,11818.43734,W,0.210,,061021,,,"A*72
"
$GNRMC,053713.00,A,3355.39917,N,11818.43734,W,0.076,,061021,,,"A*79
"
$GNRMC,053713.10,A,3355.39917,N,11818.43733,W,0.175,,061021,,,"A*7D
"
$GNRMC,053713.20,A,3355.39917,N,11818.43733,W,0.206,,061021,,,"A*79
"
$GNRMC,053713.30,A,3355.39918,N,11818.43732,W,0.299,,061021,,,"A*70
"
$GNRMC,053713.40,A,3355.39918,N,11818.43735,W,0.217,,061021,,,"A*76
"
$GNRMC,053713.50,A,3355.39918,N,11818.43733,W,0.097,,061021,,,"A*7B
"
$GNRMC,053713.60,A,3355.39917,N,11818.43731,W,0.247,,061021,,,"A*7A
"
$GNRMC,053713.70,A,3355.39918,N,11818.43731,W,0.122,,061021,,,"A*74
"
$GNRMC,053713.80,A,3355.39917,N,11818.43730,W,0.177,,061021,,,"A*75
"
$GNRMC,053713.90,A,3355.39917,N,11818.43731,W,0.127,,061021,,,"A*70
"
$GNRMC,053714.00,A,3355.39917,N,11818.43731,W,0.044,,061021,,,"A*7A
"
$GNRMC,053714.10,A,3355.39917,N,11818.43731,W,0.054,,061021,,,"A*7A
"
$GNRMC,053714.20,A,3355.39917,N,11818.43730,W,0.104,,061021,,,"A*7C
"
$GNRMC,053714.30,A,3355.39918,N,11818.43730,W,0.098,,061021,,,"A*76
"
$GNRMC,053714.40,A,3355.39917,N,11818.43730,W,0.056,,061021,,,"A*7C
"
$GNRMC,053714.50,A,3355.39917,N,11818.43729,W,0.128,,061021,,,"A*7D
"
$GNRMC,053714.60,A,3355.39917,N,11818.43731,W,0.083,,061021,,,"A*77
"
$GNRMC,053714.70,A,3355.39917,N,11818.43730,W,0.056,,061021,,,"A*7F
"
$GNRMC,053714.80,A,3355.39917,N,11818.43730,W,0.112,,061021,,,"A*71
"
$GNRMC,053714.90,A,3355.39918,N,11818.43729,W,0.146,,061021,,,"A*76
"
$GNRMC,053715.00,A,3355.39918,N,11818.43730,W,0.147,,061021,,,"A*77
"
$GNRMC,053715.10,A,3355.39917,N,11818.43730,W,0.039,,061021,,,"A*71
"
$GNRMC,053715.20,A,3355.39918,N,11818.43729,W,0.104,,061021,,,"A*7A
"
$GNRMC,053715.30,A,3355.39918,N,11818.43729,W,0.142,,061021,,,"A*79
"
$GNRMC,053715.40,A,3355.39917,N,11818.43729,W,0.200,,061021,,,"A*74
"
$GNRMC,053715.50,A,3355.39917,N,11818.43731,W,0.075,,061021,,,"A*7C
"
$GNRMC,053715.60,A,3355.39916,N,11818.43731,W,0.064,,061021,,,"A*7E
"
$GNRMC,053715.70,A,3355.39915,N,11818.43729,W,0.166,,061021,,,"A*76
"
$GNRMC,053715.80,A,3355.39915,N,11818.43730,W,0.180,,061021,,,"A*79
"
$GNRMC,053715.90,A,3355.39915,N,11818.43730,W,0.104,,061021,,,"A*74
"
$GNRMC,053716.00,A,3355.39915,N,11818.43730,W,0.142,,061021,,,"A*7C
"
$GNRMC,053716.10,A,3355.39916,N,11818.43730,W,0.189,,061021,,,"A*79
"
$GNRMC,053716.20,A,3355.39915,N,11818.43730,W,0.052,,061021,,,"A*7E
"
$GNRMC,053716.30,A,3355.39915,N,11818.43729,W,0.107,,061021,,,"A*76
"
$GNRMC,053716.40,A,3355.39916,N,11818.43728,W,0.065,,061021,,,"A*76
"
$GNRMC,053716.50,A,3355.39917,N,11818.43729,W,0.132,,061021,,,"A*74
"
$GNRMC,053716.60,A,3355.39916,N,11818.43728,W,0.086,,061021,,,"A*79
"
$GNRMC,053716.70,A,3355.39916,N,11818.43729,W,0.063,,061021,,,"A*72
"
$GNRMC,053716.80,A,3355.39917,N,11818.43729,W,0.110,,061021,,,"A*79
"
$GNRMC,053716.90,A,3355.39916,N,11818.43728,W,0.158,,061021,,,"A*74
"
$GNRMC,053717.00,A,3355.39915,N,11818.43729,W,0.146,,061021,,,"A*71
"
$GNRMC,053717.10,A,3355.39916,N,11818.43729,W,0.081,,061021,,,"A*79
"
$GNRMC,053717.20,A,3355.39915,N,11818.43730,W,0.067,,061021,,,"A*79
"
$GNRMC,053717.30,A,3355.39915,N,11818.43729,W,0.176,,061021,,,"A*71
"
$GNRMC,053717.40,A,3355.39915,N,11818.43729,W,0.075,,061021,,,"A*74
"
$GNRMC,053717.50,A,3355.39915,N,11818.43729,W,0.039,,061021,,,"A*7D
"
$GNRMC,053717.60,A,3355.39915,N,11818.43729,W,0.062,,061021,,,"A*70
"
$GNRMC,053717.70,A,3355.39915,N,11818.43728,W,0.173,,061021,,,"A*71
"
$GNRMC,053717.80,A,3355.39916,N,11818.43729,W,0.137,,061021,,,"A*7C
"
$GNRMC,053717.90,A,3355.39916,N,11818.43730,W,0.094,,061021,,,"A*7D
"
$GNRMC,053718.00,A,3355.39916,N,11818.43729,W,0.105,,061021,,,"A*7A
"
$GNRMC,053718.10,A,3355.39915,N,11818.43729,W,0.046,,061021,,,"A*7E
"
$GNRMC,053718.20,A,3355.39915,N,11818.43729,W,0.019,,061021,,,"A*77
"
$GNRMC,053718.30,A,3355.39914,N,11818.43730,W,0.101,,061021,,,"A*77
"
$GNRMC,053718.40,A,3355.39915,N,11818.43730,W,0.041,,061021,,,"A*74
"
$GNRMC,053718.50,A,3355.39914,N,11818.43728,W,0.153,,061021,,,"A*7F
"
$GNRMC,053718.60,A,3355.39915,N,11818.43729,W,0.055,,061021,,,"A*7B
"
$GNRMC,053718.70,A,3355.39915,N,11818.43729,W,0.092,,061021,,,"A*71
"
$GNRMC,053718.80,A,3355.39914,N,11818.43729,W,0.117,,061021,,,"A*73
"
$GNRMC,053718.90,A,3355.39915,N,11818.43728,W,0.041,,061021,,,"A*70
"
$GNRMC,053719.00,A,3355.39915,N,11818.43728,W,0.030,,061021,,,"A*7E
"
$GNRMC,053719.10,A,3355.39916,N,11818.43727,W,0.175,,061021,,,"A*73
"
$GNRMC,053719.20,A,3355.39915,N,11818.43727,W,0.068,,061021,,,"A*7E
"
$GNRMC,053719.30,A,3355.39915,N,11818.43728,W,0.112,,061021,,,"A*7C
"
$GNRMC,053719.40,A,3355.39916,N,11818.43727,W,0.033,,061021,,,"A*75
"
$GNRMC,053719.50,A,3355.39915,N,11818.43726,W,0.132,,061021,,,"A*76
"
$GNRMC,053719.60,A,3355.39915,N,11818.43727,W,0.043,,061021,,,"A*73
"
$GNRMC,053719.70,A,3355.39915,N,11818.43727,W,0.108,,061021,,,"A*7C
"
$GNRMC,053719.80,A,3355.39915,N,11818.43727,W,0.043,,061021,,,"A*7D
"
$GNRMC,053719.90,A,3355.39915,N,11818.43726,W,0.073,,061021,,,"A*7E
"
$GNRMC,053720.00,A,3355.39915,N,11818.43727,W,0.062,,061021,,,"A*7C
"
$GNRMC,053720.10,A,3355.39914,N,11818.43726,W,0.122,,061021,,,"A*78
"
$GNRMC,053720.20,A,3355.39914,N,11818.43726,W,0.050,,061021,,,"A*7F
"
$GNRMC,053720.30,A,3355.39914,N,11818.43725,W,0.100,,061021,,,"A*79
"
$GNRMC,053720.40,A,3355.39913,N,11818.43726,W,0.130,,061021,,,"A*79
"
$GNRMC,053720.50,A,3355.39914,N,11818.43727,W,0.104,,061021,,,"A*79
"
$GNRMC,053720.60,A,3355.39914,N,11818.43727,W,0.065,,061021,,,"A*7C
"
$GNRMC,053720.70,A,3355.39913,N,11818.43726,W,0.177,,061021,,,"A*79
"
$GNRMC,053720.80,A,3355.39913,N,11818.43727,W,0.126,,061021,,,"A*73
"
$GNRMC,053720.90,A,3355.39912,N,11818.43729,W,0.143,,061021,,,"A*7E
"
$GNRMC,053721.00,A,3355.39911,N,11818.43729,W,0.095,,061021,,,"A*7F
"
$GNRMC,053721.10,A,3355.39910,N,11818.43729,W,0.048,,061021,,,"A*7F
"
$GNRMC,053721.20,A,3355.39910,N,11818.43731,W,0.144,,061021,,,"A*78
"
$GNRMC,053721.30,A,3355.39910,N,11818.43730,W,0.056,,061021,,,"A*7A
"
$GNRMC,053721.40,A,3355.39909,N,11818.43730,W,0.134,,061021,,,"A*70
"
$GNRMC,053721.50,A,3355.39909,N,11818.43732,W,0.123,,061021,,,"A*75
"
$GNRMC,053721.60,A,3355.39908,N,11818.43733,W,0.177,,061021,,,"A*77
"
$GNRMC,053721.70,A,3355.39906,N,11818.43732,W,0.167,,061021,,,"A*78
"
$GNRMC,053721.80,A,3355.39905,N,11818.43732,W,0.223,,061021,,,"A*77
"
$GNRMC,053721.90,A,3355.39905,N,11818.43734,W,0.144,,061021,,,"A*72
"
$GNRMC,053722.00,A,3355.39905,N,11818.43733,W,0.104,,061021,,,"A*7B
"
$GNRMC,053722.10,A,3355.39904,N,11818.43734,W,0.071,,061021,,,"A*7F
"
$GNRMC,053722.20,A,3355.39903,N,11818.43735,W,0.095,,061021,,,"A*70
"
$GNRMC,053722.30,A,3355.39903,N,11818.43735,W,0.064,,061021,,,"A*7F
"
$GNRMC,053722.40,A,3355.39903,N,11818.43735,W,0.051,,061021,,,"A*7E
"
$GNRMC,053722.50,A,3355.39903,N,11818.43735,W,0.107,,061021,,,"A*7D
"
$GNRMC,053722.60,A,3355.39903,N,11818.43736,W,0.146,,061021,,,"A*78
"
$GNRMC,053722.70,A,3355.39902,N,11818.43736,W,0.049,,061021,,,"A*76
"
$GNRMC,053722.80,A,3355.39902,N,11818.43738,W,0.145,,061021,,,"A*7A
"
$GNRMC,053722.90,A,3355.39901,N,11818.43738,W,0.010,,061021,,,"A*79
"
$GNRMC,053723.00,A,3355.39900,N,11818.43738,W,0.098,,061021,,,"A*70
"
$GNRMC,053723.10,A,3355.39900,N,11818.43739,W,0.078,,061021,,,"A*7E
"
$GNRMC,053723.20,A,3355.39900,N,11818.43740,W,0.065,,061021,,,"A*7F
"
$GNRMC,053723.30,A,3355.39899,N,11818.43740,W,0.083,,061021,,,"A*77
"
$GNRMC,053723.40,A,3355.39899,N,11818.43741,W,0.081,,061021,,,"A*73
"
$GNRMC,053723.50,A,3355.39899,N,11818.43741,W,0.019,,061021,,,"A*73
"
$GNRMC,053723.60,A,3355.39898,N,11818.43741,W,0.068,,061021,,,"A*77
"
$GNRMC,053723.70,A,3355.39898,N,11818.43741,W,0.054,,061021,,,"A*79
"
$GNRMC,053723.80,A,3355.39898,N,11818.43741,W,0.084,,061021,,,"A*7B
"
$GNRMC,053723.90,A,3355.39897,N,11818.43741,W,0.113,,061021,,,"A*7A
"
$GNRMC,053724.00,A,3355.39897,N,11818.43742,W,0.072,,061021,,,"A*71
"
$GNRMC,053724.10,A,3355.39897,N,11818.43742,W,0.062,,061021,,,"A*71
"
$GNRMC,053724.20,A,3355.39896,N,11818.43742,W,0.063,,061021,,,"A*72
"
$GNRMC,053724.30,A,3355.39897,N,11818.43741,W,0.035,,061021,,,"A*72
"
$GNRMC,053724.40,A,3355.39896,N,11818.43742,W,0.040,,061021,,,"A*75
"
$GNRMC,053724.50,A,3355.39896,N,11818.43742,W,0.100,,061021,,,"A*71
"
$GNRMC,053724.60,A,3355.39896,N,11818.43743,W,0.105,,061021,,,"A*76
"
$GNRMC,053724.70,A,3355.39896,N,11818.43743,W,0.060,,061021,,,"A*75
"
$GNRMC,053724.80,A,3355.39895,N,11818.43744,W,0.074,,061021,,,"A*7B
"
$GNRMC,053724.90,A,3355.39894,N,11818.43744,W,0.013,,061021,,,"A*7A
"
$GNRMC,053725.00,A,3355.39894,N,11818.43744,W,0.023,,061021,,,"A*71
"
$GNRMC,053725.10,A,3355.39893,N,11818.43745,W,0.052,,061021,,,"A*70
"
$GNRMC,053725.20,A,3355.39892,N,11818.43745,W,0.204,,061021,,,"A*73
"
$GNRMC,053725.30,A,3355.39893,N,11818.43745,W,0.100,,061021,,,"A*74
"
$GNRMC,053725.40,A,3355.39893,N,11818.43746,W,0.110,,061021,,,"A*71
"
$GNRMC,053725.50,A,3355.39892,N,11818.43745,W,0.084,,061021,,,"A*7E
"
$GNRMC,053725.60,A,3355.39893,N,11818.43745,W,0.050,,061021,,,"A*75
"
$GNRMC,053725.70,A,3355.39892,N,11818.43746,W,0.114,,061021,,,"A*77
"
$GNRMC,053725.80,A,3355.39892,N,11818.43745,W,0.181,,061021,,,"A*77
"
$GNRMC,053725.90,A,3355.39892,N,11818.43745,W,0.101,,061021,,,"A*7E
"
$GNRMC,053726.00,A,3355.39893,N,11818.43744,W,0.021,,061021,,,"A*77
"
$GNRMC,053726.10,A,3355.39893,N,11818.43744,W,0.053,,061021,,,"A*73
"
$GNRMC,053726.20,A,3355.39892,N,11818.43745,W,0.096,,061021,,,"A*79
"
$GNRMC,053726.30,A,3355.39892,N,11818.43745,W,0.051,,061021,,,"A*73
"
$GNRMC,053726.40,A,3355.39891,N,11818.43745,W,0.048,,061021,,,"A*7F
"
$GNRMC,053726.50,A,3355.39892,N,11818.43745,W,0.056,,061021,,,"A*72
"
$GNRMC,053726.60,A,3355.39892,N,11818.43745,W,0.033,,061021,,,"A*72
"
$GNRMC,053726.70,A,3355.39892,N,11818.43746,W,0.064,,061021,,,"A*72
"
$GNRMC,053726.80,A,3355.39892,N,11818.43746,W,0.065,,061021,,,"A*7C
"
$GNRMC,053726.90,A,3355.39892,N,11818.43745,W,0.044,,061021,,,"A*7D
"
$GNRMC,053727.00,A,3355.39892,N,11818.43745,W,0.054,,061021,,,"A*74
"
$GNRMC,053727.10,A,3355.39892,N,11818.43746,W,0.142,,061021,,,"A*70
"
$GNRMC,053727.20,A,3355.39890,N,11818.43746,W,0.116,,061021,,,"A*70
"
$GNRMC,053727.30,A,3355.39890,N,11818.43746,W,0.036,,061021,,,"A*72
"
$GNRMC,053727.40,A,3355.39890,N,11818.43746,W,0.030,,061021,,,"A*73
"
$GNRMC,053727.50,A,3355.39890,N,11818.43747,W,0.049,,061021,,,"A*7D
"
$GNRMC,053727.60,A,3355.39890,N,11818.43748,W,0.075,,061021,,,"A*7E
"
$GNRMC,053727.70,A,3355.39890,N,11818.43747,W,0.077,,061021,,,"A*72
"
$GNRMC,053727.80,A,3355.39890,N,11818.43748,W,0.101,,061021,,,"A*72
"
$GNRMC,053727.90,A,3355.39890,N,11818.43748,W,0.016,,061021,,,"A*74
"
$GNRMC,053728.00,A,3355.39889,N,11818.43748,W,0.027,,061021,,,"A*78
"
$GNRMC,053728.10,A,3355.39889,N,11818.43749,W,0.066,,061021,,,"A*7D
"
$GNRMC,053728.20,A,3355.39889,N,11818.43750,W,0.075,,061021,,,"A*74
"
$GNRMC,053728.30,A,3355.39888,N,11818.43750,W,0.044,,061021,,,"A*76
"
$GNRMC,053728.40,A,3355.39888,N,11818.43751,W,0.023,,061021,,,"A*71
"
$GNRMC,053728.50,A,3355.39888,N,11818.43751,W,0.040,,061021,,,"A*75
"
$GNRMC,053728.60,A,3355.39887,N,11818.43752,W,0.027,,061021,,,"A*7B
"
$GNRMC,053728.70,A,3355.39886,N,11818.43754,W,0.101,,061021,,,"A*78
"
$GNRMC,053728.80,A,3355.39885,N,11818.43753,W,0.120,,061021,,,"A*70
"
$GNRMC,053728.90,A,3355.39884,N,11818.43754,W,0.105,,061021,,,"A*70
"
$GNRMC,053729.00,A,3355.39884,N,11818.43754,W,0.068,,061021,,,"A*72
"
$GNRMC,053729.10,A,3355.39884,N,11818.43755,W,0.070,,061021,,,"A*7B
"
$GNRMC,053729.20,A,3355.39884,N,11818.43755,W,0.058,,061021,,,"A*72
"
$GNRMC,053729.30,A,3355.39883,N,11818.43755,W,0.041,,061021,,,"A*7C
"
$GNRMC,053729.40,A,3355.39883,N,11818.43756,W,0.144,,061021,,,"A*7C
"
$GNRMC,053729.50,A,3355.39882,N,11818.43757,W,0.080,,061021,,,"A*74
"
$GNRMC,053729.60,A,3355.39882,N,11818.43758,W,0.104,,061021,,,"A*75
"
$GNRMC,053729.70,A,3355.39883,N,11818.43758,W,0.118,,061021,,,"A*78
"
$GNRMC,053729.80,A,3355.39882,N,11818.43758,W,0.087,,061021,,,"A*71
"
$GNRMC,053729.90,A,3355.39883,N,11818.43757,W,0.081,,061021,,,"A*78
"
$GNRMC,053730.00,A,3355.39882,N,11818.43758,W,0.066,,061021,,,"A*7E
"
$GNRMC,053730.10,A,3355.39881,N,11818.43759,W,0.036,,061021,,,"A*78
"
$GNRMC,053730.20,A,3355.39881,N,11818.43760,W,0.033,,061021,,,"A*74
"
$GNRMC,053730.30,A,3355.39881,N,11818.43759,W,0.137,,061021,,,"A*7A
"
$GNRMC,053730.40,A,3355.39881,N,11818.43760,W,0.083,,061021,,,"A*79
"
$GNRMC,053730.50,A,3355.39881,N,11818.43760,W,0.018,,061021,,,"A*7A
"
$GNRMC,053730.60,A,3355.39880,N,11818.43760,W,0.065,,061021,,,"A*72
"
$GNRMC,053730.70,A,3355.39880,N,11818.43761,W,0.120,,061021,,,"A*72
"
$GNRMC,053730.80,A,3355.39881,N,11818.43761,W,0.079,,061021,,,"A*71
"
$GNRMC,053730.90,A,3355.39882,N,11818.43761,W,0.170,,061021,,,"A*7B
"
$GNRMC,053731.00,A,3355.39881,N,11818.43762,W,0.039,,061021,,,"A*7F
"
$GNRMC,053731.10,A,3355.39881,N,11818.43761,W,0.043,,061021,,,"A*70
"
$GNRMC,053731.20,A,3355.39882,N,11818.43761,W,0.076,,061021,,,"A*76
"
$GNRMC,053731.30,A,3355.39882,N,11818.43761,W,0.115,,061021,,,"A*73
"
$GNRMC,053731.40,A,3355.39883,N,11818.43761,W,0.087,,061021,,,"A*7F
"
$GNRMC,053731.50,A,3355.39883,N,11818.43761,W,0.129,,061021,,,"A*7B
"
$GNRMC,053731.60,A,3355.39883,N,11818.43761,W,0.082,,061021,,,"A*78
"
$GNRMC,053731.70,A,3355.39884,N,11818.43761,W,0.162,,061021,,,"A*71
"
$GNRMC,053731.80,A,3355.39885,N,11818.43763,W,0.213,,061021,,,"A*78
"
$GNRMC,053731.90,A,3355.39885,N,11818.43762,W,0.200,,061021,,,"A*7A
"
$GNRMC,053732.00,A,3355.39885,N,11818.43763,W,0.097,,061021,,,"A*7D
"
$GNRMC,053732.10,A,3355.39885,N,11818.43764,W,0.151,,061021,,,"A*70
"
$GNRMC,053732.20,A,3355.39884,N,11818.43764,W,0.187,,061021,,,"A*79
"
$GNRMC,053732.30,A,3355.39885,N,11818.43763,W,0.120,,061021,,,"A*73
"
$GNRMC,053732.40,A,3355.39885,N,11818.43763,W,0.078,,061021,,,"A*78
"
$GNRMC,053732.50,A,3355.39885,N,11818.43764,W,0.150,,061021,,,"A*75
"
$GNRMC,053732.60,A,3355.39885,N,11818.43765,W,0.229,,061021,,,"A*7A
"
$GNRMC,053732.70,A,3355.39886,N,11818.43764,W,0.158,,061021,,,"A*7C
"
$GNRMC,053732.80,A,3355.39886,N,11818.43765,W,0.183,,061021,,,"A*74
"
$GNRMC,053732.90,A,3355.39886,N,11818.43765,W,0.189,,061021,,,"A*7F
"
$GNRMC,053733.00,A,3355.39887,N,11818.43765,W,0.206,,061021,,,"A*72
"
$GNRMC,053733.10,A,3355.39887,N,11818.43765,W,0.174,,061021,,,"A*75
"
$GNRMC,053733.20,A,3355.39886,N,11818.43766,W,0.226,,061021,,,"A*70
"
$GNRMC,053733.30,A,3355.39886,N,11818.43766,W,0.097,,061021,,,"A*79
"
$GNRMC,053733.40,A,3355.39887,N,11818.43766,W,0.078,,061021,,,"A*7E
"
$GNRMC,053733.50,A,3355.39887,N,11818.43766,W,0.087,,061021,,,"A*7F
"
$GNRMC,053733.60,A,3355.39887,N,11818.43767,W,0.109,,061021,,,"A*7A
"
$GNRMC,053733.70,A,3355.39885,N,11818.43769,W,0.187,,061021,,,"A*71
"
$GNRMC,053733.80,A,3355.39885,N,11818.43770,W,0.220,,061021,,,"A*78
"
$GNRMC,053733.90,A,3355.39887,N,11818.43770,W,0.244,,061021,,,"A*79
"
$GNRMC,053734.00,A,3355.39886,N,11818.43769,W,0.150,,061021,,,"A*78
"
$GNRMC,053734.10,A,3355.39888,N,11818.43768,W,0.214,,061021,,,"A*75
"
$GNRMC,053734.20,A,3355.39888,N,11818.43768,W,0.096,,061021,,,"A*7E
"
$GNRMC,053734.30,A,3355.39887,N,11818.43767,W,0.127,,061021,,,"A*74
"
$GNRMC,053734.40,A,3355.39889,N,11818.43767,W,0.063,,061021,,,"A*7C
"
$GNRMC,053734.50,A,3355.39889,N,11818.43767,W,0.092,,061021,,,"A*73
"
$GNRMC,053734.60,A,3355.39890,N,11818.43766,W,0.224,,061021,,,"A*76
"
$GNRMC,053734.70,A,3355.39890,N,11818.43765,W,0.119,,061021,,,"A*79
"
$GNRMC,053734.80,A,3355.39889,N,11818.43767,W,0.035,,061021,,,"A*73
"
$GNRMC,053734.90,A,3355.39891,N,11818.43767,W,0.181,,061021,,,"A*75
"
$GNRMC,053735.00,A,3355.39890,N,11818.43767,W,0.063,,061021,,,"A*71
"
$GNRMC,053735.10,A,3355.39890,N,11818.43768,W,0.033,,061021,,,"A*7A
"
$GNRMC,053735.20,A,3355.39891,N,11818.43767,W,0.059,,061021,,,"A*7B
"
$GNRMC,053735.30,A,3355.39891,N,11818.43767,W,0.097,,061021,,,"A*78
"
$GNRMC,053735.40,A,3355.39891,N,11818.43767,W,0.082,,061021,,,"A*7B
"
$GNRMC,053735.50,A,3355.39892,N,11818.43768,W,0.129,,061021,,,"A*76
"
$GNRMC,053735.60,A,3355.39892,N,11818.43769,W,0.104,,061021,,,"A*7B
"
$GNRMC,053735.70,A,3355.39891,N,11818.43768,W,0.053,,061021,,,"A*7B
"
$GNRMC,053735.80,A,3355.39892,N,11818.43767,W,0.049,,061021,,,"A*73
"
$GNRMC,053735.90,A,3355.39891,N,11818.43768,W,0.105,,061021,,,"A*77
"
$GNRMC,053736.00,A,3355.39889,N,11818.43769,W,0.372,,061021,,,"A*77
"
$GNRMC,053736.10,A,3355.39890,N,11818.43768,W,0.183,,061021,,,"A*73
"
$GNRMC,053736.20,A,3355.39889,N,11818.43768,W,0.145,,061021,,,"A*72
"
$GNRMC,053736.30,A,3355.39890,N,11818.43767,W,0.088,,061021,,,"A*74
"
$GNRMC,053736.40,A,3355.39890,N,11818.43766,W,0.062,,061021,,,"A*76
"
$GNRMC,053736.50,A,3355.39889,N,11818.43767,W,0.036,,061021,,,"A*7F
"
$GNRMC,053736.60,A,3355.39889,N,11818.43767,W,0.016,,061021,,,"A*7E
"
$GNRMC,053736.70,A,3355.39888,N,11818.43766,W,0.095,,061021,,,"A*74
"
$GNRMC,053736.80,A,3355.39888,N,11818.43768,W,0.082,,061021,,,"A*73
"
$GNRMC,053736.90,A,3355.39887,N,11818.43769,W,0.040,,061021,,,"A*72
"
$GNRMC,053737.00,A,3355.39887,N,11818.43769,W,0.104,,061021,,,"A*7B
"
$GNRMC,053737.10,A,3355.39886,N,11818.43769,W,0.083,,061021,,,"A*75
"
$GNRMC,053737.20,A,3355.39887,N,11818.43769,W,0.049,,061021,,,"A*71
"
$GNRMC,053737.30,A,3355.39887,N,11818.43768,W,0.029,,061021,,,"A*77
"
$GNRMC,053737.40,A,3355.39886,N,11818.43770,W,0.006,,061021,,,"A*75
"
$GNRMC,053737.50,A,3355.39885,N,11818.43769,W,0.095,,061021,,,"A*75
"
$GNRMC,053737.60,A,3355.39887,N,11818.43768,W,0.144,,061021,,,"A*78
"
$GNRMC,053737.70,A,3355.39886,N,11818.43768,W,0.040,,061021,,,"A*7D
"
$GNRMC,053737.80,A,3355.39886,N,11818.43767,W,0.145,,061021,,,"A*79
"
$GNRMC,053737.90,A,3355.39885,N,11818.43768,W,0.202,,061021,,,"A*74
"
$GNRMC,053738.00,A,3355.39886,N,11818.43768,W,0.172,,061021,,,"A*75
"
$GNRMC,053738.10,A,3355.39886,N,11818.43767,W,0.092,,061021,,,"A*74
"
$GNRMC,053738.20,A,3355.39886,N,11818.43767,W,0.111,,061021,,,"A*7D
"
$GNRMC,053738.30,A,3355.39885,N,11818.43768,W,0.114,,061021,,,"A*75
"
$GNRMC,053738.40,A,3355.39885,N,11818.43767,W,0.039,,061021,,,"A*73
"
$GNRMC,053738.50,A,3355.39885,N,11818.43767,W,0.035,,061021,,,"A*7E
"
$GNRMC,053738.60,A,3355.39884,N,11818.43767,W,0.053,,061021,,,"A*7C
"
$GNRMC,053738.70,A,3355.39884,N,11818.43768,W,0.088,,061021,,,"A*74
"
$GNRMC,053738.80,A,3355.39884,N,11818.43768,W,0.041,,061021,,,"A*7E
"
$GNRMC,053738.90,A,3355.39884,N,11818.43767,W,0.065,,061021,,,"A*76
"
$GNRMC,053739.00,A,3355.39884,N,11818.43768,W,0.066,,061021,,,"A*72
"
$GNRMC,053739.10,A,3355.39884,N,11818.43767,W,0.098,,061021,,,"A*7D
"
$GNRMC,053739.20,A,3355.39883,N,11818.43767,W,0.051,,061021,,,"A*7C
"
$GNRMC,053739.30,A,3355.39883,N,11818.43767,W,0.034,,061021,,,"A*7E
"
$GNRMC,053739.40,A,3355.39883,N,11818.43767,W,0.053,,061021,,,"A*78
"
$GNRMC,053739.50,A,3355.39882,N,11818.43768,W,0.092,,061021,,,"A*7A
"
$GNRMC,053739.60,A,3355.39882,N,11818.43768,W,0.082,,061021,,,"A*78
"
$GNRMC,053739.70,A,3355.39882,N,11818.43768,W,0.041,,061021,,,"A*76
"
$GNRMC,053739.80,A,3355.39882,N,11818.43767,W,0.035,,061021,,,"A*75
"
$GNRMC,053739.90,A,3355.39881,N,11818.43767,W,0.039,,061021,,,"A*7B
"
$GNRMC,053740.00,A,3355.39882,N,11818.43768,W,0.063,,061021,,,"A*7F
"
$GNRMC,053740.10,A,3355.39882,N,11818.43767,W,0.067,,061021,,,"A*75
"
$GNRMC,053740.20,A,3355.39882,N,11818.43767,W,0.031,,061021,,,"A*75
"
$GNRMC,053740.30,A,3355.39881,N,11818.43767,W,0.049,,061021,,,"A*78
"
$GNRMC,053740.40,A,3355.39882,N,11818.43767,W,0.083,,061021,,,"A*7A
"
$GNRMC,053740.50,A,3355.39882,N,11818.43767,W,0.103,,061021,,,"A*72
"
$GNRMC,053740.60,A,3355.39883,N,11818.43766,W,0.079,,061021,,,"A*7D
"
$GNRMC,053740.70,A,3355.39882,N,11818.43766,W,0.079,,061021,,,"A*7D
"
$GNRMC,053740.80,A,3355.39882,N,11818.43766,W,0.021,,061021,,,"A*7F
"
$GNRMC,053740.90,A,3355.39882,N,11818.43766,W,0.058,,061021,,,"A*70
"
$GNRMC,053741.00,A,3355.39883,N,11818.43767,W,0.057,,061021,,,"A*77
"
$GNRMC,053741.10,A,3355.39883,N,11818.43766,W,0.078,,061021,,,"A*7A
"
$GNRMC,053741.20,A,3355.39884,N,11818.43765,W,0.082,,061021,,,"A*78
"
$GNRMC,053741.30,A,3355.39884,N,11818.43765,W,0.086,,061021,,,"A*7D
"
$GNRMC,053741.40,A,3355.39884,N,11818.43765,W,0.051,,061021,,,"A*70
"
$GNRMC,053741.50,A,3355.39885,N,11818.43764,W,0.076,,061021,,,"A*74
"
$GNRMC,053741.60,A,3355.39884,N,11818.43764,W,0.052,,061021,,,"A*70
"
$GNRMC,053741.70,A,3355.39884,N,11818.43764,W,0.100,,061021,,,"A*77
"
$GNRMC,053741.80,A,3355.39885,N,11818.43764,W,0.071,,061021,,,"A*7E
"
$GNRMC,053741.90,A,3355.39885,N,11818.43765,W,0.035,,061021,,,"A*7E
"
$GNRMC,053742.00,A,3355.39885,N,11818.43764,W,0.079,,061021,,,"A*7D
"
$GNRMC,053742.10,A,3355.39885,N,11818.43764,W,0.126,,061021,,,"A*77
"
$GNRMC,053742.20,A,3355.39884,N,11818.43764,W,0.052,,061021,,,"A*77
"
$GNRMC,053742.30,A,3355.39884,N,11818.43765,W,0.054,,061021,,,"A*71
"
$GNRMC,053742.40,A,3355.39885,N,11818.43765,W,0.078,,061021,,,"A*79
"
$GNRMC,053742.50,A,3355.39885,N,11818.43765,W,0.030,,061021,,,"A*74
"
$GNRMC,053742.60,A,3355.39885,N,11818.43765,W,0.067,,061021,,,"A*75
"
$GNRMC,053742.70,A,3355.39886,N,11818.43764,W,0.197,,061021,,,"A*78
"
$GNRMC,053742.80,A,3355.39886,N,11818.43764,W,0.218,,061021,,,"A*73
"
$GNRMC,053742.90,A,3355.39886,N,11818.43765,W,0.177,,061021,,,"A*79
"
$GNRMC,053743.00,A,3355.39886,N,11818.43765,W,0.178,,061021,,,"A*7E
"
$GNRMC,053743.10,A,3355.39886,N,11818.43765,W,0.099,,061021,,,"A*71
"
$GNRMC,053743.20,A,3355.39886,N,11818.43765,W,0.019,,061021,,,"A*7A
"
$GNRMC,053743.30,A,3355.39885,N,11818.43766,W,0.241,,061021,,,"A*74
"
$GNRMC,053743.40,A,3355.39886,N,11818.43764,W,0.123,,061021,,,"A*75
"
$GNRMC,053743.50,A,3355.39885,N,11818.43765,W,0.096,,061021,,,"A*79
"
$GNRMC,053743.60,A,3355.39886,N,11818.43764,W,0.131,,061021,,,"A*74
"
$GNRMC,053743.70,A,3355.39887,N,11818.43763,W,0.151,,061021,,,"A*75
"
$GNRMC,053743.80,A,3355.39889,N,11818.43764,W,0.347,,061021,,,"A*76
"
$GNRMC,053743.90,A,3355.39890,N,11818.43763,W,0.260,,061021,,,"A*7C
"
$GNRMC,053744.00,A,3355.39890,N,11818.43761,W,0.176,,061021,,,"A*74
"
$GNRMC,053744.10,A,3355.39890,N,11818.43763,W,0.089,,061021,,,"A*76
"
$GNRMC,053744.20,A,3355.39889,N,11818.43763,W,0.078,,061021,,,"A*73
"
$GNRMC,053744.30,A,3355.39890,N,11818.43762,W,0.031,,061021,,,"A*76
"
$GNRMC,053744.40,A,3355.39891,N,11818.43762,W,0.164,,061021,,,"A*71
"
$GNRMC,053744.50,A,3355.39891,N,11818.43762,W,0.111,,061021,,,"A*72
"
$GNRMC,053744.60,A,3355.39890,N,11818.43762,W,0.064,,061021,,,"A*73
"
$GNRMC,053744.70,A,3355.39891,N,11818.43761,W,0.056,,061021,,,"A*71
"
$GNRMC,053744.80,A,3355.39892,N,11818.43761,W,0.026,,061021,,,"A*7A
"
$GNRMC,053744.90,A,3355.39892,N,11818.43761,W,0.049,,061021,,,"A*72
"
$GNRMC,053745.00,A,3355.39893,N,11818.43761,W,0.069,,061021,,,"A*79
"
$GNRMC,053745.10,A,3355.39893,N,11818.43760,W,0.067,,061021,,,"A*77
"
$GNRMC,053745.20,A,3355.39893,N,11818.43760,W,0.064,,061021,,,"A*77
"
$GNRMC,053745.30,A,3355.39893,N,11818.43760,W,0.021,,061021,,,"A*77
"
$GNRMC,053745.40,A,3355.39894,N,11818.43760,W,0.036,,061021,,,"A*71
"
$GNRMC,053745.50,A,3355.39894,N,11818.43760,W,0.067,,061021,,,"A*74
"
$GNRMC,053745.60,A,3355.39895,N,11818.43760,W,0.103,,061021,,,"A*75
"
$GNRMC,053745.70,A,3355.39895,N,11818.43761,W,0.168,,061021,,,"A*78
"
$GNRMC,053745.80,A,3355.39894,N,11818.43762,W,0.288,,061021,,,"A*78
"
$GNRMC,053745.90,A,3355.39895,N,11818.43762,W,0.130,,061021,,,"A*78
"
$GNRMC,053746.00,A,3355.39896,N,11818.43761,W,0.047,,061021,,,"A*73
"
$GNRMC,053746.10,A,3355.39896,N,11818.43762,W,0.111,,061021,,,"A*73
"
$GNRMC,053746.20,A,3355.39896,N,11818.43760,W,0.096,,061021,,,"A*7C
"
$GNRMC,053746.30,A,3355.39897,N,11818.43760,W,0.031,,061021,,,"A*71
"
$GNRMC,053746.40,A,3355.39897,N,11818.43760,W,0.105,,061021,,,"A*70
"
$GNRMC,053746.50,A,3355.39897,N,11818.43760,W,0.204,,061021,,,"A*73
"
$GNRMC,053746.60,A,3355.39897,N,11818.43760,W,0.115,,061021,,,"A*73
"
$GNRMC,053746.70,A,3355.39897,N,11818.43761,W,0.090,,061021,,,"A*7F
"
$GNRMC,053746.80,A,3355.39898,N,11818.43759,W,0.050,,061021,,,"A*78
"
$GNRMC,053746.90,A,3355.39898,N,11818.43760,W,0.075,,061021,,,"A*74
"
$GNRMC,053747.00,A,3355.39899,N,11818.43759,W,0.101,,061021,,,"A*75
"
$GNRMC,053747.10,A,3355.39899,N,11818.43759,W,0.050,,061021,,,"A*71
"
$GNRMC,053747.20,A,3355.39900,N,11818.43759,W,0.090,,061021,,,"A*7F
"
$GNRMC,053747.30,A,3355.39900,N,11818.43760,W,0.108,,061021,,,"A*74
"
$GNRMC,053747.40,A,3355.39900,N,11818.43758,W,0.028,,061021,,,"A*7B
"
$GNRMC,053747.50,A,3355.39900,N,11818.43758,W,0.075,,061021,,,"A*72
"
$GNRMC,053747.60,A,3355.39900,N,11818.43758,W,0.033,,061021,,,"A*73
"
$GNRMC,053747.70,A,3355.39901,N,11818.43758,W,0.037,,061021,,,"A*77
"
$GNRMC,053747.80,A,3355.39901,N,11818.43758,W,0.036,,061021,,,"A*79
"
$GNRMC,053747.90,A,3355.39901,N,11818.43758,W,0.020,,061021,,,"A*7F
"
$GNRMC,053748.00,A,3355.39901,N,11818.43758,W,0.033,,061021,,,"A*7B
"
$GNRMC,053748.10,A,3355.39902,N,11818.43756,W,0.110,,061021,,,"A*77
"
$GNRMC,053748.20,A,3355.39902,N,11818.43757,W,0.063,,061021,,,"A*70
"
