$GNRMC,053054.90,A,3355.40025,N,11818.43538,W,1.044,,061021,,,"A*7C
"
$GNRMC,053055.00,A,3355.40031,N,11818.43518,W,0.737,,061021,,,"A*71
"
$GNRMC,053055.10,A,3355.40031,N,11818.43520,W,0.815,,061021,,,"A*74
"
$GNRMC,053055.20,A,3355.40032,N,11818.43515,W,0.707,,061021,,,"A*7E
"
$GNRMC,053055.30,A,3355.40035,N,11818.43501,W,0.548,,061021,,,"A*74
"
$GNRMC,053055.40,A,3355.40042,N,11818.43473,W,0.189,,061021,,,"A*7E
"
$GNRMC,053055.50,A,3355.40044,N,11818.43459,W,0.212,,061021,,,"A*70
"
$GNRMC,053055.60,A,3355.40038,N,11818.43481,W,0.414,,061021,,,"A*7D
"
$GNRMC,053055.70,A,3355.40043,N,11818.43476,W,0.067,,061021,,,"A*78
"
$GNRMC,053055.80,A,3355.40045,N,11818.43469,W,0.159,,061021,,,"A*73
"
$GNRMC,053055.90,A,3355.40046,N,11818.43469,W,0.169,,061021,,,"A*72
"
$GNRMC,053056.00,A,3355.40047,N,11818.43471,W,0.130,,061021,,,"A*7C
"
$GNRMC,053056.10,A,3355.40047,N,11818.43467,W,0.252,,061021,,,"A*7D
"
$GNRMC,053056.20,A,3355.40047,N,11818.43469,W,0.183,,061021,,,"A*7F
"
$GNRMC,053056.30,A,3355.40044,N,11818.43479,W,0.152,,061021,,,"A*70
"
$GNRMC,053056.40,A,3355.40044,N,11818.43477,W,0.232,,061021,,,"A*7C
"
$GNRMC,053056.50,A,3355.40042,N,11818.43489,W,0.136,,061021,,,"A*7D
"
$GNRMC,053056.60,A,3355.40040,N,11818.43495,W,0.214,,061021,,,"A*72
"
$GNRMC,053056.70,A,3355.40040,N,11818.43496,W,0.217,,061021,,,"A*73
"
$GNRMC,053056.80,A,3355.40043,N,11818.43497,W,0.103,,061021,,,"A*78
"
$GNRMC,053056.90,A,3355.40043,N,11818.43499,W,0.060,,061021,,,"A*73
"
$GNRMC,053057.00,A,3355.40036,N,11818.43510,W,0.339,,061021,,,"A*76
"
$GNRMC,053057.10,A,3355.40033,N,11818.43520,W,0.433,,061021,,,"A*7C
"
$GNRMC,053057.20,A,3355.40032,N,11818.43524,W,0.409,,061021,,,"A*73
"
$GNRMC,053057.30,A,3355.40032,N,11818.43525,W,0.295,,061021,,,"A*70
"
$GNRMC,053057.40,A,3355.40034,N,11818.43526,W,0.153,,061021,,,"A*7B
"
$GNRMC,053057.50,A,3355.40035,N,11818.43523,W,0.191,,061021,,,"A*70
"
$GNRMC,053057.60,A,3355.40036,N,11818.43515,W,0.385,,061021,,,"A*72
"
$GNRMC,053057.70,A,3355.40040,N,11818.43505,W,0.675,,061021,,,"A*79
"
$GNRMC,053057.80,A,3355.40043,N,11818.43502,W,0.580,,061021,,,"A*7B
"
$GNRMC,053057.90,A,3355.40041,N,11818.43507,W,0.653,,061021,,,"A*70
"
$GNRMC,053058.00,A,3355.40039,N,11818.43516,W,0.418,,061021,,,"A*74
"
$GNRMC,053058.10,A,3355.40037,N,11818.43520,W,0.410,,061021,,,"A*76
"
$GNRMC,053058.20,A,3355.40032,N,11818.43531,W,0.444,,061021,,,"A*71
"
$GNRMC,053058.30,A,3355.40030,N,11818.43548,W,0.211,,061021,,,"A*7A
"
$GNRMC,053058.40,A,3355.40030,N,11818.43554,W,0.250,,061021,,,"A*75
"
$GNRMC,053058.50,A,3355.40028,N,11818.43562,W,0.397,,061021,,,"A*72
"
$GNRMC,053058.60,A,3355.40025,N,11818.43570,W,0.529,,061021,,,"A*7C
"
$GNRMC,053058.70,A,3355.40022,N,11818.43578,W,0.685,,061021,,,"A*77
"
$GNRMC,053058.80,A,3355.40024,N,11818.43579,W,0.690,,061021,,,"A*7B
"
$GNRMC,053058.90,A,3355.40029,N,11818.43560,W,0.166,,061021,,,"A*71
"
$GNRMC,053059.00,A,3355.40034,N,11818.43547,W,0.155,,061021,,,"A*70
"
$GNRMC,053059.10,A,3355.40034,N,11818.43550,W,0.074,,061021,,,"A*75
"
$GNRMC,053059.20,A,3355.40032,N,11818.43558,W,0.150,,061021,,,"A*7F
"
$GNRMC,053059.30,A,3355.40032,N,11818.43559,W,0.119,,061021,,,"A*72
"
$GNRMC,053059.40,A,3355.40031,N,11818.43562,W,0.167,,061021,,,"A*77
"
$GNRMC,053059.50,A,3355.40031,N,11818.43565,W,0.246,,061021,,,"A*71
"
$GNRMC,053059.60,A,3355.40033,N,11818.43560,W,0.108,,061021,,,"A*7C
"
$GNRMC,053059.70,A,3355.40035,N,11818.43556,W,0.038,,061021,,,"A*7C
"
$GNRMC,053059.80,A,3355.40038,N,11818.43552,W,0.235,,061021,,,"A*75
"
$GNRMC,053059.90,A,3355.40039,N,11818.43554,W,0.184,,061021,,,"A*7A
"
$GNRMC,053100.00,A,3355.40039,N,11818.43555,W,0.108,,061021,,,"A*7B
"
$GNRMC,053100.10,A,3355.40042,N,11818.43550,W,0.239,,061021,,,"A*72
"
$GNRMC,053100.20,A,3355.40045,N,11818.43541,W,0.410,,061021,,,"A*7B
"
$GNRMC,053100.30,A,3355.40048,N,11818.43534,W,0.529,,061021,,,"A*7E
"
$GNRMC,053100.40,A,3355.40047,N,11818.43541,W,0.369,,061021,,,"A*76
"
$GNRMC,053100.50,A,3355.40049,N,11818.43534,W,0.500,,061021,,,"A*72
"
$GNRMC,053100.60,A,3355.40051,N,11818.43529,W,0.705,,061021,,,"A*73
"
$GNRMC,053100.70,A,3355.40053,N,11818.43521,W,0.972,,061021,,,"A*76
"
$GNRMC,053100.80,A,3355.40056,N,11818.43516,W,1.144,135.40,061021,,,"A*69
"
$GNRMC,053100.90,A,3355.40057,N,11818.43511,W,1.186,105.37,061021,,,"A*63
"
$GNRMC,053101.00,A,3355.40058,N,11818.43511,W,1.097,90.81,061021,,,"A*55
"
$GNRMC,053101.10,A,3355.40059,N,11818.43508,W,1.122,81.89,061021,,,"A*5A
"
$GNRMC,053101.20,A,3355.40060,N,11818.43505,W,1.115,77.29,061021,,,"A*59
"
$GNRMC,053101.30,A,3355.40062,N,11818.43499,W,1.174,75.50,061021,,,"A*55
"
$GNRMC,053101.40,A,3355.40064,N,11818.43493,W,1.291,75.12,061021,,,"A*50
"
$GNRMC,053101.50,A,3355.40066,N,11818.43488,W,1.360,74.88,061021,,,"A*54
"
$GNRMC,053101.60,A,3355.40066,N,11818.43490,W,1.183,73.51,061021,,,"A*52
"
$GNRMC,053101.70,A,3355.40065,N,11818.43495,W,1.003,72.94,061021,,,"A*54
"
$GNRMC,053101.80,A,3355.40064,N,11818.43499,W,0.846,,061021,,,"A*78
"
$GNRMC,053101.90,A,3355.40065,N,11818.43495,W,0.845,,061021,,,"A*77
"
$GNRMC,053102.00,A,3355.40064,N,11818.43501,W,0.579,,061021,,,"A*72
"
$GNRMC,053102.10,A,3355.40060,N,11818.43514,W,0.257,,061021,,,"A*78
"
$GNRMC,053102.20,A,3355.40058,N,11818.43522,W,0.080,,061021,,,"A*7D
"
$GNRMC,053102.30,A,3355.40057,N,11818.43526,W,0.084,,061021,,,"A*73
"
$GNRMC,053102.40,A,3355.40057,N,11818.43526,W,0.105,,061021,,,"A*7C
"
$GNRMC,053102.50,A,3355.40056,N,11818.43531,W,0.178,,061021,,,"A*70
"
$GNRMC,053102.60,A,3355.40052,N,11818.43545,W,0.483,,061021,,,"A*75
"
$GNRMC,053102.70,A,3355.40050,N,11818.43553,W,0.580,,061021,,,"A*73
"
$GNRMC,053102.80,A,3355.40049,N,11818.43559,W,0.683,,061021,,,"A*7E
"
$GNRMC,053102.90,A,3355.40048,N,11818.43558,W,0.502,,061021,,,"A*75
"
$GNRMC,053103.00,A,3355.40050,N,11818.43555,W,0.281,,061021,,,"A*75
"
$GNRMC,053103.10,A,3355.40049,N,11818.43559,W,0.305,,061021,,,"A*7D
"
$GNRMC,053103.20,A,3355.40048,N,11818.43564,W,0.301,,061021,,,"A*75
"
$GNRMC,053103.30,A,3355.40047,N,11818.43569,W,0.346,,061021,,,"A*75
"
$GNRMC,053103.40,A,3355.40047,N,11818.43571,W,0.382,,061021,,,"A*73
"
$GNRMC,053103.50,A,3355.40050,N,11818.43566,W,0.289,,061021,,,"A*78
"
$GNRMC,053103.60,A,3355.40050,N,11818.43567,W,0.443,,061021,,,"A*7A
"
$GNRMC,053103.70,A,3355.40049,N,11818.43569,W,0.413,,061021,,,"A*78
"
$GNRMC,053103.80,A,3355.40046,N,11818.43580,W,0.690,,061021,,,"A*76
"
$GNRMC,053103.90,A,3355.40042,N,11818.43595,W,1.076,342.08,061021,,,"A*6B
"
$GNRMC,053104.00,A,3355.40042,N,11818.43596,W,0.986,299.71,061021,,,"A*68
"
$GNRMC,053104.10,A,3355.40043,N,11818.43590,W,0.730,,061021,,,"A*77
"
$GNRMC,053104.20,A,3355.40044,N,11818.43592,W,0.795,,061021,,,"A*7E
"
$GNRMC,053104.30,A,3355.40041,N,11818.43601,W,0.906,,061021,,,"A*77
"
$GNRMC,053104.40,A,3355.40038,N,11818.43613,W,1.181,273.69,061021,,,"A*6C
"
$GNRMC,053104.50,A,3355.40037,N,11818.43616,W,1.202,264.73,061021,,,"A*62
"
$GNRMC,053104.60,A,3355.40038,N,11818.43611,W,0.943,258.61,061021,,,"A*6A
"
$GNRMC,053104.70,A,3355.40037,N,11818.43615,W,0.996,255.27,061021,,,"A*67
"
$GNRMC,053104.80,A,3355.40036,N,11818.43622,W,1.062,253.49,061021,,,"A*60
"
$GNRMC,053104.90,A,3355.40035,N,11818.43626,W,1.127,253.88,061021,,,"A*6B
"
$GNRMC,053105.00,A,3355.40034,N,11818.43629,W,1.130,252.63,061021,,,"A*6F
"
$GNRMC,053105.10,A,3355.40032,N,11818.43633,W,1.169,252.70,061021,,,"A*6D
"
$GNRMC,053105.20,A,3355.40031,N,11818.43639,W,1.247,252.93,061021,,,"A*65
"
$GNRMC,053105.30,A,3355.40028,N,11818.43647,W,1.404,252.95,061021,,,"A*62
"
$GNRMC,053105.40,A,3355.40028,N,11818.43648,W,1.308,252.72,061021,,,"A*68
"
$GNRMC,053105.50,A,3355.40029,N,11818.43645,W,1.177,253.50,061021,,,"A*6E
"
$GNRMC,053105.60,A,3355.40029,N,11818.43645,W,1.142,254.57,061021,,,"A*6B
"
$GNRMC,053105.70,A,3355.40029,N,11818.43640,W,0.832,,061021,,,"A*7F
"
$GNRMC,053105.80,A,3355.40031,N,11818.43630,W,0.459,,061021,,,"A*7F
"
$GNRMC,053105.90,A,3355.40037,N,11818.43613,W,0.491,,061021,,,"A*7D
"
$GNRMC,053106.00,A,3355.40039,N,11818.43603,W,0.778,,061021,,,"A*7C
"
$GNRMC,053106.10,A,3355.40040,N,11818.43600,W,0.920,,061021,,,"A*73
"
$GNRMC,053106.20,A,3355.40040,N,11818.43600,W,0.956,,061021,,,"A*71
"
$GNRMC,053106.30,A,3355.40043,N,11818.43593,W,1.136,186.12,061021,,,"A*67
"
$GNRMC,053106.40,A,3355.40046,N,11818.43584,W,1.263,126.44,061021,,,"A*69
"
$GNRMC,053106.50,A,3355.40046,N,11818.43583,W,1.211,105.31,061021,,,"A*69
"
$GNRMC,053106.60,A,3355.40049,N,11818.43574,W,1.487,92.68,061021,,,"A*57
"
$GNRMC,053106.70,A,3355.40052,N,11818.43566,W,1.521,85.64,061021,,,"A*58
"
$GNRMC,053106.80,A,3355.40052,N,11818.43562,W,1.572,85.30,061021,,,"A*54
"
$GNRMC,053106.90,A,3355.40053,N,11818.43559,W,1.485,82.72,061021,,,"A*54
"
$GNRMC,053107.00,A,3355.40058,N,11818.43548,W,1.703,80.25,061021,,,"A*5A
"
$GNRMC,053107.10,A,3355.40060,N,11818.43537,W,1.854,79.61,061021,,,"A*53
"
$GNRMC,053107.20,A,3355.40063,N,11818.43529,W,1.958,79.45,061021,,,"A*57
"
$GNRMC,053107.30,A,3355.40064,N,11818.43526,W,1.971,79.14,061021,,,"A*51
"
$GNRMC,053107.40,A,3355.40067,N,11818.43523,W,1.898,74.67,061021,,,"A*5F
"
$GNRMC,053107.50,A,3355.40071,N,11818.43514,W,1.955,72.03,061021,,,"A*59
"
$GNRMC,053107.60,A,3355.40073,N,11818.43507,W,2.069,72.19,061021,,,"A*54
"
$GNRMC,053107.70,A,3355.40076,N,11818.43503,W,1.916,70.46,061021,,,"A*5E
"
$GNRMC,053107.80,A,3355.40076,N,11818.43504,W,1.636,69.05,061021,,,"A*54
"
$GNRMC,053107.90,A,3355.40077,N,11818.43504,W,1.584,69.21,061021,,,"A*58
"
$GNRMC,053108.00,A,3355.40078,N,11818.43506,W,1.318,66.32,061021,,,"A*5D
"
$GNRMC,053108.10,A,3355.40079,N,11818.43501,W,1.281,67.47,061021,,,"A*58
"
$GNRMC,053108.20,A,3355.40081,N,11818.43498,W,1.228,67.19,061021,,,"A*55
"
$GNRMC,053108.30,A,3355.40083,N,11818.43497,W,1.072,65.01,061021,,,"A*5F
"
$GNRMC,053108.40,A,3355.40083,N,11818.43497,W,0.938,65.68,061021,,,"A*51
"
$GNRMC,053108.50,A,3355.40084,N,11818.43499,W,0.756,63.49,061021,,,"A*5A
"
$GNRMC,053108.60,A,3355.40084,N,11818.43498,W,0.508,,061021,,,"A*77
"
$GNRMC,053108.70,A,3355.40086,N,11818.43497,W,0.439,,061021,,,"A*78
"
$GNRMC,053108.80,A,3355.40089,N,11818.43490,W,0.540,,061021,,,"A*70
"
$GNRMC,053108.90,A,3355.40095,N,11818.43480,W,0.610,,061021,,,"A*7B
"
$GNRMC,053109.00,A,3355.40095,N,11818.43480,W,0.478,,061021,,,"A*7F
"
$GNRMC,053109.10,A,3355.40098,N,11818.43472,W,0.580,,061021,,,"A*78
"
$GNRMC,053109.20,A,3355.40102,N,11818.43458,W,1.058,73.23,061021,,,"A*5B
"
$GNRMC,053109.30,A,3355.40105,N,11818.43457,W,1.117,67.24,061021,,,"A*5A
"
$GNRMC,053109.40,A,3355.40107,N,11818.43453,W,1.081,66.04,061021,,,"A*56
"
$GNRMC,053109.50,A,3355.40111,N,11818.43442,W,1.267,69.30,061021,,,"A*52
"
$GNRMC,053109.60,A,3355.40111,N,11818.43441,W,1.322,72.14,061021,,,"A*5E
"
$GNRMC,053109.70,A,3355.40111,N,11818.43442,W,1.222,71.06,061021,,,"A*5D
"
$GNRMC,053109.80,A,3355.40114,N,11818.43434,W,1.331,68.64,061021,,,"A*59
"
$GNRMC,053109.90,A,3355.40116,N,11818.43430,W,1.184,68.27,061021,,,"A*55
"
$GNRMC,053110.00,A,3355.40117,N,11818.43425,W,1.090,68.42,061021,,,"A*56
"
$GNRMC,053110.10,A,3355.40122,N,11818.43412,W,1.229,68.14,061021,,,"A*56
"
$GNRMC,053110.20,A,3355.40125,N,11818.43406,W,1.307,67.10,061021,,,"A*51
"
$GNRMC,053110.30,A,3355.40123,N,11818.43413,W,0.949,65.52,061021,,,"A*57
"
$GNRMC,053110.40,A,3355.40120,N,11818.43419,W,0.581,,061021,,,"A*7B
"
$GNRMC,053110.50,A,3355.40120,N,11818.43423,W,0.517,,061021,,,"A*7C
"
$GNRMC,053110.60,A,3355.40124,N,11818.43415,W,0.655,,061021,,,"A*7B
"
$GNRMC,053110.70,A,3355.40125,N,11818.43412,W,0.596,,061021,,,"A*70
"
$GNRMC,053110.80,A,3355.40124,N,11818.43416,W,0.396,,061021,,,"A*7C
"
$GNRMC,053110.90,A,3355.40122,N,11818.43423,W,0.135,,061021,,,"A*76
"
$GNRMC,053111.00,A,3355.40120,N,11818.43429,W,0.252,,061021,,,"A*74
"
$GNRMC,053111.10,A,3355.40119,N,11818.43432,W,0.237,,061021,,,"A*76
"
$GNRMC,053111.20,A,3355.40122,N,11818.43426,W,0.082,,061021,,,"A*74
"
$GNRMC,053111.30,A,3355.40122,N,11818.43424,W,0.103,,061021,,,"A*7F
"
$GNRMC,053111.40,A,3355.40123,N,11818.43428,W,0.079,,061021,,,"A*79
"
$GNRMC,053111.50,A,3355.40122,N,11818.43433,W,0.282,,061021,,,"A*75
"
$GNRMC,053111.60,A,3355.40122,N,11818.43435,W,0.328,,061021,,,"A*71
"
$GNRMC,053111.70,A,3355.40125,N,11818.43428,W,0.284,,061021,,,"A*7C
"
$GNRMC,053111.80,A,3355.40126,N,11818.43426,W,0.198,,061021,,,"A*70
"
$GNRMC,053111.90,A,3355.40133,N,11818.43406,W,0.333,,061021,,,"A*74
"
$GNRMC,053112.00,A,3355.40134,N,11818.43404,W,0.350,,061021,,,"A*7E
"
$GNRMC,053112.10,A,3355.40133,N,11818.43407,W,0.252,,061021,,,"A*78
"
$GNRMC,053112.20,A,3355.40133,N,11818.43410,W,0.138,,061021,,,"A*72
"
$GNRMC,053112.30,A,3355.40132,N,11818.43414,W,0.078,,061021,,,"A*73
"
$GNRMC,053112.40,A,3355.40130,N,11818.43419,W,0.142,,061021,,,"A*73
"
$GNRMC,053112.50,A,3355.40133,N,11818.43412,W,0.356,,061021,,,"A*7D
"
$GNRMC,053112.60,A,3355.40138,N,11818.43402,W,0.665,,061021,,,"A*71
"
$GNRMC,053112.70,A,3355.40140,N,11818.43396,W,0.770,66.60,061021,,,"A*58
"
$GNRMC,053112.80,A,3355.40142,N,11818.43390,W,0.744,66.25,061021,,,"A*55
"
$GNRMC,053112.90,A,3355.40143,N,11818.43387,W,0.553,,061021,,,"A*7E
"
$GNRMC,053113.00,A,3355.40143,N,11818.43382,W,0.508,,061021,,,"A*7D
"
$GNRMC,053113.10,A,3355.40145,N,11818.43379,W,0.530,,061021,,,"A*75
"
$GNRMC,053113.20,A,3355.40145,N,11818.43378,W,0.471,,061021,,,"A*73
"
$GNRMC,053113.30,A,3355.40145,N,11818.43376,W,0.564,,061021,,,"A*79
"
$GNRMC,053113.40,A,3355.40146,N,11818.43374,W,0.634,,061021,,,"A*79
"
$GNRMC,053113.50,A,3355.40147,N,11818.43371,W,0.619,,061021,,,"A*73
"
$GNRMC,053113.60,A,3355.40146,N,11818.43372,W,0.706,,061021,,,"A*7D
"
$GNRMC,053113.70,A,3355.40143,N,11818.43381,W,0.380,,061021,,,"A*7F
"
$GNRMC,053113.80,A,3355.40144,N,11818.43377,W,0.491,,061021,,,"A*79
"
$GNRMC,053113.90,A,3355.40146,N,11818.43372,W,0.523,,061021,,,"A*77
"
$GNRMC,053114.00,A,3355.40148,N,11818.43364,W,0.536,,061021,,,"A*74
"
$GNRMC,053114.10,A,3355.40149,N,11818.43363,W,0.486,,061021,,,"A*79
"
$GNRMC,053114.20,A,3355.40149,N,11818.43365,W,0.326,,061021,,,"A*71
"
$GNRMC,053114.30,A,3355.40148,N,11818.43368,W,0.072,,061021,,,"A*7E
"
$GNRMC,053114.40,A,3355.40149,N,11818.43363,W,0.099,,061021,,,"A*76
"
$GNRMC,053114.50,A,3355.40151,N,11818.43359,W,0.223,,061021,,,"A*74
"
$GNRMC,053114.60,A,3355.40152,N,11818.43357,W,0.249,,061021,,,"A*76
"
$GNRMC,053114.70,A,3355.40154,N,11818.43357,W,0.365,,061021,,,"A*7E
"
$GNRMC,053114.80,A,3355.40154,N,11818.43354,W,0.211,,061021,,,"A*70
"
$GNRMC,053114.90,A,3355.40156,N,11818.43352,W,0.066,,061021,,,"A*77
"
$GNRMC,053115.00,A,3355.40155,N,11818.43356,W,0.261,,061021,,,"A*7D
"
$GNRMC,053115.10,A,3355.40153,N,11818.43363,W,0.493,,061021,,,"A*77
"
$GNRMC,053115.20,A,3355.40152,N,11818.43368,W,0.689,,061021,,,"A*77
"
$GNRMC,053115.30,A,3355.40154,N,11818.43363,W,0.694,,061021,,,"A*77
"
$GNRMC,053115.40,A,3355.40155,N,11818.43361,W,0.732,345.73,061021,,,"A*66
"
$GNRMC,053115.50,A,3355.40153,N,11818.43368,W,1.024,279.45,061021,,,"A*62
"
$GNRMC,053115.60,A,3355.40152,N,11818.43374,W,1.081,264.46,061021,,,"A*6D
"
$GNRMC,053115.70,A,3355.40152,N,11818.43374,W,1.110,259.00,061021,,,"A*69
"
$GNRMC,053115.80,A,3355.40155,N,11818.43365,W,0.802,254.93,061021,,,"A*6D
"
$GNRMC,053115.90,A,3355.40156,N,11818.43365,W,0.798,251.92,061021,,,"A*67
"
$GNRMC,053116.00,A,3355.40156,N,11818.43367,W,0.901,251.55,061021,,,"A*6A
"
$GNRMC,053116.10,A,3355.40155,N,11818.43369,W,0.911,250.39,061021,,,"A*6C
"
$GNRMC,053116.20,A,3355.40155,N,11818.43368,W,0.858,246.12,061021,,,"A*6C
"
$GNRMC,053116.30,A,3355.40157,N,11818.43365,W,0.712,,061021,,,"A*7E
"
$GNRMC,053116.40,A,3355.40158,N,11818.43360,W,0.594,,061021,,,"A*7F
"
$GNRMC,053116.50,A,3355.40156,N,11818.43361,W,0.722,242.44,061021,,,"A*64
"
$GNRMC,053116.60,A,3355.40155,N,11818.43365,W,0.721,243.78,061021,,,"A*6D
"
$GNRMC,053116.70,A,3355.40156,N,11818.43363,W,0.582,,061021,,,"A*76
"
$GNRMC,053116.80,A,3355.40154,N,11818.43368,W,0.684,245.10,061021,,,"A*69
"
$GNRMC,053116.90,A,3355.40151,N,11818.43380,W,0.918,246.99,061021,,,"A*63
"
$GNRMC,053117.00,A,3355.40150,N,11818.43384,W,0.901,247.09,061021,,,"A*6E
"
$GNRMC,053117.10,A,3355.40153,N,11818.43374,W,0.614,,061021,,,"A*7E
"
$GNRMC,053117.20,A,3355.40153,N,11818.43374,W,0.577,,061021,,,"A*7B
"
$GNRMC,053117.30,A,3355.40155,N,11818.43369,W,0.412,,061021,,,"A*72
"
$GNRMC,053117.40,A,3355.40158,N,11818.43362,W,0.245,,061021,,,"A*77
"
$GNRMC,053117.50,A,3355.40160,N,11818.43355,W,0.092,,061021,,,"A*71
"
$GNRMC,053117.60,A,3355.40163,N,11818.43348,W,0.110,,061021,,,"A*76
"
$GNRMC,053117.70,A,3355.40170,N,11818.43330,W,0.581,,061021,,,"A*76
"
$GNRMC,053117.80,A,3355.40171,N,11818.43326,W,0.611,,061021,,,"A*75
"
$GNRMC,053117.90,A,3355.40173,N,11818.43323,W,0.591,,061021,,,"A*78
"
$GNRMC,053118.00,A,3355.40174,N,11818.43319,W,0.648,,061021,,,"A*77
"
$GNRMC,053118.10,A,3355.40175,N,11818.43317,W,0.589,,061021,,,"A*77
"
$GNRMC,053118.20,A,3355.40175,N,11818.43315,W,0.636,,061021,,,"A*71
"
$GNRMC,053118.30,A,3355.40175,N,11818.43313,W,0.477,,061021,,,"A*71
"
$GNRMC,053118.40,A,3355.40176,N,11818.43309,W,0.566,,061021,,,"A*7F
"
$GNRMC,053118.50,A,3355.40177,N,11818.43309,W,0.493,,061021,,,"A*74
"
$GNRMC,053118.60,A,3355.40175,N,11818.43313,W,0.353,,061021,,,"A*75
"
$GNRMC,053118.70,A,3355.40172,N,11818.43323,W,0.051,,061021,,,"A*71
"
$GNRMC,053118.80,A,3355.40172,N,11818.43321,W,0.018,,061021,,,"A*71
"
$GNRMC,053118.90,A,3355.40174,N,11818.43318,W,0.099,,061021,,,"A*75
"
$GNRMC,053119.00,A,3355.40175,N,11818.43315,W,0.148,,061021,,,"A*7C
"
$GNRMC,053119.10,A,3355.40173,N,11818.43320,W,0.137,,061021,,,"A*75
"
$GNRMC,053119.20,A,3355.40173,N,11818.43318,W,0.086,,061021,,,"A*76
"
$GNRMC,053119.30,A,3355.40175,N,11818.43313,W,0.006,,061021,,,"A*72
"
$GNRMC,053119.40,A,3355.40176,N,11818.43308,W,0.079,,061021,,,"A*74
"
$GNRMC,053119.50,A,3355.40179,N,11818.43302,W,0.193,,061021,,,"A*75
"
$GNRMC,053119.60,A,3355.40180,N,11818.43297,W,0.272,,061021,,,"A*71
"
$GNRMC,053119.70,A,3355.40182,N,11818.43291,W,0.410,,061021,,,"A*76
"
$GNRMC,053119.80,A,3355.40185,N,11818.43284,W,0.484,,061021,,,"A*77
"
$GNRMC,053119.90,A,3355.40186,N,11818.43278,W,0.482,,061021,,,"A*70
"
$GNRMC,053120.00,A,3355.40187,N,11818.43275,W,0.472,,061021,,,"A*70
"
$GNRMC,053120.10,A,3355.40187,N,11818.43275,W,0.375,,061021,,,"A*71
"
$GNRMC,053120.20,A,3355.40188,N,11818.43275,W,0.302,,061021,,,"A*7D
"
$GNRMC,053120.30,A,3355.40186,N,11818.43276,W,0.219,,061021,,,"A*7A
"
$GNRMC,053120.40,A,3355.40187,N,11818.43274,W,0.251,,061021,,,"A*72
"
$GNRMC,053120.50,A,3355.40188,N,11818.43270,W,0.350,,061021,,,"A*78
"
$GNRMC,053120.60,A,3355.40190,N,11818.43265,W,0.381,,061021,,,"A*7A
"
$GNRMC,053120.70,A,3355.40191,N,11818.43261,W,0.454,,061021,,,"A*71
"
$GNRMC,053120.80,A,3355.40193,N,11818.43256,W,0.463,,061021,,,"A*7C
"
$GNRMC,053120.90,A,3355.40192,N,11818.43259,W,0.288,,061021,,,"A*70
"
$GNRMC,053121.00,A,3355.40192,N,11818.43261,W,0.181,,061021,,,"A*79
"
$GNRMC,053121.10,A,3355.40190,N,11818.43266,W,0.049,,061021,,,"A*78
"
$GNRMC,053121.20,A,3355.40191,N,11818.43262,W,0.054,,061021,,,"A*72
"
$GNRMC,053121.30,A,3355.40191,N,11818.43259,W,0.086,,061021,,,"A*74
"
$GNRMC,053121.40,A,3355.40195,N,11818.43252,W,0.197,,061021,,,"A*7D
"
$GNRMC,053121.50,A,3355.40196,N,11818.43245,W,0.353,,061021,,,"A*73
"
$GNRMC,053121.60,A,3355.40197,N,11818.43243,W,0.279,,061021,,,"A*7E
"
$GNRMC,053121.70,A,3355.40199,N,11818.43238,W,0.347,,061021,,,"A*71
"
$GNRMC,053121.80,A,3355.40200,N,11818.43237,W,0.300,,061021,,,"A*71
"
$GNRMC,053121.90,A,3355.40196,N,11818.43250,W,0.027,,061021,,,"A*7B
"
$GNRMC,053122.00,A,3355.40197,N,11818.43246,W,0.083,,061021,,,"A*79
"
$GNRMC,053122.10,A,3355.40201,N,11818.43239,W,0.256,,061021,,,"A*76
"
$GNRMC,053122.20,A,3355.40202,N,11818.43234,W,0.215,,061021,,,"A*7C
"
$GNRMC,053122.30,A,3355.40202,N,11818.43233,W,0.202,,061021,,,"A*7C
"
$GNRMC,053122.40,A,3355.40201,N,11818.43238,W,0.033,,061021,,,"A*73
"
$GNRMC,053122.50,A,3355.40199,N,11818.43246,W,0.230,,061021,,,"A*78
"
$GNRMC,053122.60,A,3355.40201,N,11818.43241,W,0.054,,061021,,,"A*7E
"
$GNRMC,053122.70,A,3355.40203,N,11818.43237,W,0.063,,061021,,,"A*78
"
$GNRMC,053122.80,A,3355.40205,N,11818.43231,W,0.142,,061021,,,"A*75
"
$GNRMC,053122.90,A,3355.40208,N,11818.43224,W,0.263,,061021,,,"A*7D
"
$GNRMC,053123.00,A,3355.40211,N,11818.43218,W,0.338,,061021,,,"A*7D
"
$GNRMC,053123.10,A,3355.40213,N,11818.43214,W,0.363,,061021,,,"A*7C
"
$GNRMC,053123.20,A,3355.40214,N,11818.43212,W,0.351,,061021,,,"A*7F
"
$GNRMC,053123.30,A,3355.40216,N,11818.43206,W,0.449,,061021,,,"A*77
"
$GNRMC,053123.40,A,3355.40218,N,11818.43202,W,0.517,,061021,,,"A*70
"
$GNRMC,053123.50,A,3355.40220,N,11818.43196,W,0.516,,061021,,,"A*75
"
$GNRMC,053123.60,A,3355.40222,N,11818.43191,W,0.634,,061021,,,"A*70
"
$GNRMC,053123.70,A,3355.40221,N,11818.43197,W,0.492,,061021,,,"A*7A
"
$GNRMC,053123.80,A,3355.40222,N,11818.43195,W,0.575,,061021,,,"A*7C
"
$GNRMC,053123.90,A,3355.40223,N,11818.43189,W,0.592,,061021,,,"A*78
"
$GNRMC,053124.00,A,3355.40227,N,11818.43180,W,0.699,312.26,061021,,,"A*69
"
$GNRMC,053124.10,A,3355.40228,N,11818.43179,W,0.642,,061021,,,"A*7D
"
$GNRMC,053124.20,A,3355.40228,N,11818.43182,W,0.480,,061021,,,"A*76
"
$GNRMC,053124.30,A,3355.40229,N,11818.43183,W,0.346,,061021,,,"A*7A
"
$GNRMC,053124.40,A,3355.40228,N,11818.43185,W,0.184,,061021,,,"A*76
"
$GNRMC,053124.50,A,3355.40227,N,11818.43189,W,0.028,,061021,,,"A*73
"
$GNRMC,053124.60,A,3355.40227,N,11818.43194,W,0.293,,061021,,,"A*7E
"
$GNRMC,053124.70,A,3355.40226,N,11818.43199,W,0.362,,061021,,,"A*7C
"
$GNRMC,053124.80,A,3355.40226,N,11818.43200,W,0.464,,061021,,,"A*71
"
$GNRMC,053124.90,A,3355.40226,N,11818.43204,W,0.595,,061021,,,"A*7B
"
$GNRMC,053125.00,A,3355.40226,N,11818.43200,W,0.313,,061021,,,"A*7F
"
$GNRMC,053125.10,A,3355.40228,N,11818.43201,W,0.239,,061021,,,"A*78
"
$GNRMC,053125.20,A,3355.40225,N,11818.43210,W,0.488,,061021,,,"A*7A
"
$GNRMC,053125.30,A,3355.40226,N,11818.43214,W,0.772,,061021,,,"A*7A
"
$GNRMC,053125.40,A,3355.40225,N,11818.43209,W,0.650,,061021,,,"A*73
"
$GNRMC,053125.50,A,3355.40229,N,11818.43203,W,0.275,,061021,,,"A*77
"
$GNRMC,053125.60,A,3355.40227,N,11818.43216,W,0.479,,061021,,,"A*74
"
$GNRMC,053125.70,A,3355.40229,N,11818.43211,W,0.227,,061021,,,"A*71
"
$GNRMC,053125.80,A,3355.40230,N,11818.43209,W,0.289,,061021,,,"A*7B
"
$GNRMC,053125.90,A,3355.40231,N,11818.43209,W,0.358,,061021,,,"A*76
"
$GNRMC,053126.00,A,3355.40229,N,11818.43215,W,0.545,,061021,,,"A*72
"
$GNRMC,053126.10,A,3355.40228,N,11818.43221,W,0.705,278.67,061021,,,"A*61
"
$GNRMC,053126.20,A,3355.40229,N,11818.43215,W,0.392,,061021,,,"A*7C
"
$GNRMC,053126.30,A,3355.40233,N,11818.43209,W,0.106,,061021,,,"A*74
"
$GNRMC,053126.40,A,3355.40233,N,11818.43211,W,0.070,,061021,,,"A*7A
"
$GNRMC,053126.50,A,3355.40233,N,11818.43210,W,0.221,,061021,,,"A*7C
"
$GNRMC,053126.60,A,3355.40234,N,11818.43210,W,0.246,,061021,,,"A*79
"
$GNRMC,053126.70,A,3355.40235,N,11818.43207,W,0.273,,061021,,,"A*79
"
$GNRMC,053126.80,A,3355.40235,N,11818.43209,W,0.249,,061021,,,"A*71
"
$GNRMC,053126.90,A,3355.40236,N,11818.43209,W,0.220,,061021,,,"A*7C
"
$GNRMC,053127.00,A,3355.40237,N,11818.43204,W,0.525,,061021,,,"A*7A
"
$GNRMC,053127.10,A,3355.40240,N,11818.43198,W,0.602,,061021,,,"A*7B
"
$GNRMC,053127.20,A,3355.40243,N,11818.43191,W,0.679,,061021,,,"A*7E
"
$GNRMC,053127.30,A,3355.40246,N,11818.43182,W,0.761,358.92,061021,,,"A*6B
"
$GNRMC,053127.40,A,3355.40249,N,11818.43174,W,0.773,35.46,061021,,,"A*58
"
$GNRMC,053127.50,A,3355.40249,N,11818.43175,W,0.561,,061021,,,"A*73
"
$GNRMC,053127.60,A,3355.40248,N,11818.43180,W,0.325,,061021,,,"A*7D
"
$GNRMC,053127.70,A,3355.40249,N,11818.43180,W,0.194,,061021,,,"A*75
"
$GNRMC,053127.80,A,3355.40252,N,11818.43173,W,0.343,,061021,,,"A*74
"
$GNRMC,053127.90,A,3355.40253,N,11818.43170,W,0.319,,061021,,,"A*78
"
$GNRMC,053128.00,A,3355.40254,N,11818.43166,W,0.295,,061021,,,"A*7B
"
$GNRMC,053128.10,A,3355.40254,N,11818.43172,W,0.154,,061021,,,"A*71
"
$GNRMC,053128.20,A,3355.40252,N,11818.43177,W,0.215,,061021,,,"A*77
"
$GNRMC,053128.30,A,3355.40252,N,11818.43179,W,0.326,,061021,,,"A*79
"
$GNRMC,053128.40,A,3355.40254,N,11818.43173,W,0.150,,061021,,,"A*71
"
$GNRMC,053128.50,A,3355.40258,N,11818.43164,W,0.109,,061021,,,"A*76
"
$GNRMC,053128.60,A,3355.40262,N,11818.43155,W,0.237,,061021,,,"A*70
"
$GNRMC,053128.70,A,3355.40263,N,11818.43151,W,0.351,,061021,,,"A*75
"
$GNRMC,053128.80,A,3355.40266,N,11818.43146,W,0.337,,061021,,,"A*79
"
$GNRMC,053128.90,A,3355.40267,N,11818.43140,W,0.406,,061021,,,"A*7A
"
$GNRMC,053129.00,A,3355.40269,N,11818.43138,W,0.421,,061021,,,"A*76
"
$GNRMC,053129.10,A,3355.40271,N,11818.43132,W,0.520,,061021,,,"A*74
"
$GNRMC,053129.20,A,3355.40274,N,11818.43125,W,0.626,,061021,,,"A*71
"
$GNRMC,053129.30,A,3355.40278,N,11818.43114,W,0.799,51.35,061021,,,"A*57
"
$GNRMC,053129.40,A,3355.40280,N,11818.43110,W,0.803,57.61,061021,,,"A*58
"
$GNRMC,053129.50,A,3355.40281,N,11818.43108,W,0.688,60.86,061021,,,"A*51
"
$GNRMC,053129.60,A,3355.40284,N,11818.43100,W,0.883,65.92,061021,,,"A*5A
"
$GNRMC,053129.70,A,3355.40285,N,11818.43097,W,0.849,68.17,061021,,,"A*53
"
$GNRMC,053129.80,A,3355.40285,N,11818.43103,W,0.703,,061021,,,"A*77
"
$GNRMC,053129.90,A,3355.40282,N,11818.43114,W,0.328,,061021,,,"A*7A
"
$GNRMC,053130.00,A,3355.40280,N,11818.43115,W,0.211,,061021,,,"A*73
"
$GNRMC,053130.10,A,3355.40283,N,11818.43106,W,0.437,,061021,,,"A*71
"
$GNRMC,053130.20,A,3355.40283,N,11818.43108,W,0.434,,061021,,,"A*7F
"
$GNRMC,053130.30,A,3355.40282,N,11818.43111,W,0.381,,061021,,,"A*7E
"
$GNRMC,053130.40,A,3355.40279,N,11818.43116,W,0.337,,061021,,,"A*77
"
$GNRMC,053130.50,A,3355.40278,N,11818.43117,W,0.262,,061021,,,"A*77
"
$GNRMC,053130.60,A,3355.40279,N,11818.43116,W,0.203,,061021,,,"A*73
"
$GNRMC,053130.70,A,3355.40280,N,11818.43111,W,0.388,,061021,,,"A*71
"
$GNRMC,053130.80,A,3355.40282,N,11818.43107,W,0.392,,061021,,,"A*70
"
$GNRMC,053130.90,A,3355.40281,N,11818.43110,W,0.221,,061021,,,"A*7D
"
$GNRMC,053131.00,A,3355.40278,N,11818.43114,W,0.113,,061021,,,"A*75
"
$GNRMC,053131.10,A,3355.40279,N,11818.43111,W,0.172,,061021,,,"A*77
"
$GNRMC,053131.20,A,3355.40280,N,11818.43111,W,0.199,,061021,,,"A*77
"
$GNRMC,053131.30,A,3355.40279,N,11818.43111,W,0.218,,061021,,,"A*7A
"
$GNRMC,053131.40,A,3355.40279,N,11818.43110,W,0.200,,061021,,,"A*75
"
$GNRMC,053131.50,A,3355.40279,N,11818.43106,W,0.366,,061021,,,"A*72
"
$GNRMC,053131.60,A,3355.40281,N,11818.43104,W,0.410,,061021,,,"A*72
"
$GNRMC,053131.70,A,3355.40279,N,11818.43111,W,0.337,,061021,,,"A*72
"
$GNRMC,053131.80,A,3355.40279,N,11818.43111,W,0.337,,061021,,,"A*7D
"
$GNRMC,053131.90,A,3355.40280,N,11818.43107,W,0.631,,061021,,,"A*7E
"
$GNRMC,053132.00,A,3355.40280,N,11818.43107,W,0.639,,061021,,,"A*7C
"
$GNRMC,053132.10,A,3355.40280,N,11818.43108,W,0.610,,061021,,,"A*79
"
$GNRMC,053132.20,A,3355.40279,N,11818.43109,W,0.555,,061021,,,"A*7F
"
$GNRMC,053132.30,A,3355.40277,N,11818.43113,W,0.369,,061021,,,"A*72
"
$GNRMC,053132.40,A,3355.40276,N,11818.43114,W,0.397,,061021,,,"A*72
"
$GNRMC,053132.50,A,3355.40277,N,11818.43117,W,0.324,,061021,,,"A*79
"
$GNRMC,053132.60,A,3355.40273,N,11818.43129,W,0.154,,061021,,,"A*76
"
$GNRMC,053132.70,A,3355.40271,N,11818.43130,W,0.174,,061021,,,"A*7F
"
$GNRMC,053132.80,A,3355.40272,N,11818.43130,W,0.133,,061021,,,"A*70
"
$GNRMC,053132.90,A,3355.40271,N,11818.43132,W,0.142,,061021,,,"A*76
"
$GNRMC,053133.00,A,3355.40270,N,11818.43135,W,0.293,,061021,,,"A*77
"
$GNRMC,053133.10,A,3355.40269,N,11818.43138,W,0.288,,061021,,,"A*79
"
$GNRMC,053133.20,A,3355.40268,N,11818.43141,W,0.279,,061021,,,"A*7B
"
$GNRMC,053133.30,A,3355.40269,N,11818.43141,W,0.296,,061021,,,"A*7A
"
$GNRMC,053133.40,A,3355.40269,N,11818.43139,W,0.247,,061021,,,"A*7E
"
$GNRMC,053133.50,A,3355.40270,N,11818.43132,W,0.134,,061021,,,"A*7B
"
$GNRMC,053133.60,A,3355.40271,N,11818.43134,W,0.050,,061021,,,"A*7C
"
$GNRMC,053133.70,A,3355.40270,N,11818.43136,W,0.130,,061021,,,"A*79
"
$GNRMC,053133.80,A,3355.40271,N,11818.43134,W,0.275,,061021,,,"A*77
"
$GNRMC,053133.90,A,3355.40271,N,11818.43135,W,0.243,,061021,,,"A*72
"
$GNRMC,053134.00,A,3355.40269,N,11818.43140,W,0.094,,061021,,,"A*7F
"
$GNRMC,053134.10,A,3355.40268,N,11818.43142,W,0.058,,061021,,,"A*7D
"
$GNRMC,053134.20,A,3355.40270,N,11818.43138,W,0.159,,061021,,,"A*7A
"
$GNRMC,053134.30,A,3355.40269,N,11818.43137,W,0.211,,061021,,,"A*73
"
$GNRMC,053134.40,A,3355.40267,N,11818.43147,W,0.058,,061021,,,"A*72
"
$GNRMC,053134.50,A,3355.40266,N,11818.43147,W,0.070,,061021,,,"A*78
"
$GNRMC,053134.60,A,3355.40266,N,11818.43147,W,0.040,,061021,,,"A*78
"
$GNRMC,053134.70,A,3355.40267,N,11818.43145,W,0.080,,061021,,,"A*76
"
$GNRMC,053134.80,A,3355.40268,N,11818.43140,W,0.328,,061021,,,"A*72
"
$GNRMC,053134.90,A,3355.40270,N,11818.43137,W,0.340,,061021,,,"A*74
"
$GNRMC,053135.00,A,3355.40272,N,11818.43129,W,0.599,,061021,,,"A*73
"
$GNRMC,053135.10,A,3355.40273,N,11818.43126,W,0.600,,061021,,,"A*7F
"
$GNRMC,053135.20,A,3355.40273,N,11818.43126,W,0.557,,061021,,,"A*7D
"
$GNRMC,053135.30,A,3355.40273,N,11818.43127,W,0.623,,061021,,,"A*7D
"
$GNRMC,053135.40,A,3355.40272,N,11818.43131,W,0.450,,061021,,,"A*7A
"
$GNRMC,053135.50,A,3355.40271,N,11818.43135,W,0.310,,061021,,,"A*7F
"
$GNRMC,053135.60,A,3355.40270,N,11818.43134,W,0.429,,061021,,,"A*71
"
$GNRMC,053135.70,A,3355.40271,N,11818.43135,W,0.242,,061021,,,"A*7B
"
$GNRMC,053135.80,A,3355.40266,N,11818.43149,W,0.110,,061021,,,"A*7D
"
$GNRMC,053135.90,A,3355.40262,N,11818.43158,W,0.391,,061021,,,"A*73
"
$GNRMC,053136.00,A,3355.40261,N,11818.43162,W,0.446,,061021,,,"A*7E
"
$GNRMC,053136.10,A,3355.40264,N,11818.43160,W,0.364,,061021,,,"A*7F
"
$GNRMC,053136.20,A,3355.40267,N,11818.43150,W,0.120,,061021,,,"A*7E
"
$GNRMC,053136.30,A,3355.40269,N,11818.43146,W,0.104,,061021,,,"A*70
"
$GNRMC,053136.40,A,3355.40268,N,11818.43149,W,0.053,,061021,,,"A*7A
"
$GNRMC,053136.50,A,3355.40263,N,11818.43162,W,0.327,,061021,,,"A*79
"
$GNRMC,053136.60,A,3355.40262,N,11818.43169,W,0.348,,061021,,,"A*79
"
$GNRMC,053136.70,A,3355.40264,N,11818.43162,W,0.139,,061021,,,"A*71
"
$GNRMC,053136.80,A,3355.40262,N,11818.43168,W,0.248,,061021,,,"A*77
"
$GNRMC,053136.90,A,3355.40263,N,11818.43165,W,0.116,,061021,,,"A*72
"
$GNRMC,053137.00,A,3355.40267,N,11818.43157,W,0.189,,061021,,,"A*79
"
$GNRMC,053137.10,A,3355.40268,N,11818.43154,W,0.249,,061021,,,"A*7B
"
$GNRMC,053137.20,A,3355.40266,N,11818.43160,W,0.071,,061021,,,"A*78
"
$GNRMC,053137.30,A,3355.40266,N,11818.43161,W,0.056,,061021,,,"A*7D
"
$GNRMC,053137.40,A,3355.40265,N,11818.43166,W,0.134,,061021,,,"A*7B
"
$GNRMC,053137.50,A,3355.40263,N,11818.43175,W,0.354,,061021,,,"A*7A
"
$GNRMC,053137.60,A,3355.40260,N,11818.43181,W,0.521,,061021,,,"A*75
"
$GNRMC,053137.70,A,3355.40260,N,11818.43183,W,0.416,,061021,,,"A*73
"
$GNRMC,053137.80,A,3355.40260,N,11818.43181,W,0.247,,061021,,,"A*7C
"
$GNRMC,053137.90,A,3355.40260,N,11818.43185,W,0.321,,061021,,,"A*78
"
$GNRMC,053138.00,A,3355.40260,N,11818.43186,W,0.317,,061021,,,"A*78
"
$GNRMC,053138.10,A,3355.40261,N,11818.43185,W,0.180,,061021,,,"A*77
"
$GNRMC,053138.20,A,3355.40260,N,11818.43184,W,0.122,,061021,,,"A*7C
"
$GNRMC,053138.30,A,3355.40259,N,11818.43188,W,0.066,,061021,,,"A*7A
"
$GNRMC,053138.40,A,3355.40261,N,11818.43185,W,0.161,,061021,,,"A*7D
"
$GNRMC,053138.50,A,3355.40264,N,11818.43178,W,0.297,,061021,,,"A*71
"
$GNRMC,053138.60,A,3355.40267,N,11818.43169,W,0.512,,061021,,,"A*7B
"
$GNRMC,053138.70,A,3355.40268,N,11818.43165,W,0.507,,061021,,,"A*7D
"
$GNRMC,053138.80,A,3355.40267,N,11818.43168,W,0.477,,061021,,,"A*76
"
$GNRMC,053138.90,A,3355.40266,N,11818.43172,W,0.496,,061021,,,"A*72
"
$GNRMC,053139.00,A,3355.40267,N,11818.43170,W,0.491,,061021,,,"A*7E
"
$GNRMC,053139.10,A,3355.40268,N,11818.43169,W,0.383,,061021,,,"A*7C
"
$GNRMC,053139.20,A,3355.40267,N,11818.43170,W,0.351,,061021,,,"A*77
"
$GNRMC,053139.30,A,3355.40266,N,11818.43172,W,0.240,,061021,,,"A*74
"
$GNRMC,053139.40,A,3355.40267,N,11818.43173,W,0.238,,061021,,,"A*7C
"
$GNRMC,053139.50,A,3355.40268,N,11818.43171,W,0.336,,061021,,,"A*7F
"
$GNRMC,053139.60,A,3355.40269,N,11818.43172,W,0.273,,061021,,,"A*7E
"
$GNRMC,053139.70,A,3355.40269,N,11818.43169,W,0.280,,061021,,,"A*79
"
$GNRMC,053139.80,A,3355.40269,N,11818.43169,W,0.387,,061021,,,"A*70
"
$GNRMC,053139.90,A,3355.40269,N,11818.43170,W,0.365,,061021,,,"A*75
"
$GNRMC,053140.00,A,3355.40269,N,11818.43171,W,0.312,,061021,,,"A*73
"
$GNRMC,053140.10,A,3355.40267,N,11818.43175,W,0.131,,061021,,,"A*7B
"
$GNRMC,053140.20,A,3355.40268,N,11818.43175,W,0.160,,061021,,,"A*73
"
$GNRMC,053140.30,A,3355.40267,N,11818.43178,W,0.125,,061021,,,"A*71
"
$GNRMC,053140.40,A,3355.40265,N,11818.43182,W,0.066,,061021,,,"A*77
"
$GNRMC,053140.50,A,3355.40264,N,11818.43184,W,0.142,,061021,,,"A*76
"
$GNRMC,053140.60,A,3355.40264,N,11818.43186,W,0.181,,061021,,,"A*78
"
$GNRMC,053140.70,A,3355.40261,N,11818.43190,W,0.279,,061021,,,"A*7F
"
$GNRMC,053140.80,A,3355.40259,N,11818.43199,W,0.376,,061021,,,"A*7C
"
$GNRMC,053140.90,A,3355.40256,N,11818.43206,W,0.439,,061021,,,"A*7B
"
$GNRMC,053141.00,A,3355.40256,N,11818.43205,W,0.378,,061021,,,"A*72
"
$GNRMC,053141.10,A,3355.40256,N,11818.43204,W,0.320,,061021,,,"A*7F
"
$GNRMC,053141.20,A,3355.40256,N,11818.43204,W,0.339,,061021,,,"A*74
"
$GNRMC,053141.30,A,3355.40256,N,11818.43204,W,0.299,,061021,,,"A*7E
"
$GNRMC,053141.40,A,3355.40254,N,11818.43209,W,0.371,,061021,,,"A*71
"
$GNRMC,053141.50,A,3355.40252,N,11818.43213,W,0.435,,061021,,,"A*7A
"
$GNRMC,053141.60,A,3355.40251,N,11818.43218,W,0.391,,061021,,,"A*78
"
$GNRMC,053141.70,A,3355.40249,N,11818.43220,W,0.311,,061021,,,"A*73
"
$GNRMC,053141.80,A,3355.40247,N,11818.43224,W,0.247,,061021,,,"A*74
"
$GNRMC,053141.90,A,3355.40246,N,11818.43230,W,0.016,,061021,,,"A*77
"
$GNRMC,053142.00,A,3355.40244,N,11818.43236,W,0.130,,061021,,,"A*7C
"
$GNRMC,053142.10,A,3355.40242,N,11818.43242,W,0.188,,061021,,,"A*7B
"
$GNRMC,053142.20,A,3355.40241,N,11818.43244,W,0.139,,061021,,,"A*77
"
$GNRMC,053142.30,A,3355.40240,N,11818.43247,W,0.283,,061021,,,"A*76
"
$GNRMC,053142.40,A,3355.40238,N,11818.43251,W,0.273,,061021,,,"A*76
"
$GNRMC,053142.50,A,3355.40238,N,11818.43254,W,0.226,,061021,,,"A*72
"
$GNRMC,053142.60,A,3355.40237,N,11818.43255,W,0.307,,061021,,,"A*7D
"
$GNRMC,053142.70,A,3355.40237,N,11818.43254,W,0.470,,061021,,,"A*7A
"
$GNRMC,053142.80,A,3355.40238,N,11818.43254,W,0.474,,061021,,,"A*7E
"
$GNRMC,053142.90,A,3355.40235,N,11818.43260,W,0.311,,061021,,,"A*71
"
$GNRMC,053143.00,A,3355.40233,N,11818.43265,W,0.222,,061021,,,"A*7B
"
$GNRMC,053143.10,A,3355.40232,N,11818.43269,W,0.124,,061021,,,"A*72
"
$GNRMC,053143.20,A,3355.40230,N,11818.43272,W,0.042,,061021,,,"A*78
"
$GNRMC,053143.30,A,3355.40229,N,11818.43275,W,0.065,,061021,,,"A*73
"
$GNRMC,053143.40,A,3355.40233,N,11818.43263,W,0.319,,061021,,,"A*70
"
$GNRMC,053143.50,A,3355.40233,N,11818.43264,W,0.442,,061021,,,"A*7F
"
$GNRMC,053143.60,A,3355.40231,N,11818.43267,W,0.312,,061021,,,"A*7F
"
$GNRMC,053143.70,A,3355.40229,N,11818.43272,W,0.331,,061021,,,"A*72
"
$GNRMC,053143.80,A,3355.40229,N,11818.43272,W,0.431,,061021,,,"A*7A
"
$GNRMC,053143.90,A,3355.40230,N,11818.43272,W,0.505,,061021,,,"A*75
"
$GNRMC,053144.00,A,3355.40230,N,11818.43271,W,0.496,,061021,,,"A*73
"
$GNRMC,053144.10,A,3355.40230,N,11818.43269,W,0.562,,061021,,,"A*71
"
$GNRMC,053144.20,A,3355.40230,N,11818.43271,W,0.622,,061021,,,"A*7C
"
$GNRMC,053144.30,A,3355.40227,N,11818.43276,W,0.416,,061021,,,"A*79
"
$GNRMC,053144.40,A,3355.40227,N,11818.43279,W,0.241,,061021,,,"A*75
"
$GNRMC,053144.50,A,3355.40227,N,11818.43274,W,0.286,,061021,,,"A*72
"
$GNRMC,053144.60,A,3355.40227,N,11818.43277,W,0.189,,061021,,,"A*7E
"
$GNRMC,053144.70,A,3355.40226,N,11818.43281,W,0.125,,061021,,,"A*71
"
$GNRMC,053144.80,A,3355.40224,N,11818.43283,W,0.009,,061021,,,"A*71
"
$GNRMC,053144.90,A,3355.40225,N,11818.43279,W,0.185,,061021,,,"A*71
"
$GNRMC,053145.00,A,3355.40225,N,11818.43281,W,0.133,,061021,,,"A*73
"
$GNRMC,053145.10,A,3355.40224,N,11818.43279,W,0.609,,061021,,,"A*7A
"
$GNRMC,053145.20,A,3355.40223,N,11818.43286,W,0.385,,061021,,,"A*7F
"
$GNRMC,053145.30,A,3355.40222,N,11818.43286,W,0.498,,061021,,,"A*74
"
$GNRMC,053145.40,A,3355.40222,N,11818.43286,W,0.366,,061021,,,"A*75
"
$GNRMC,053145.50,A,3355.40222,N,11818.43286,W,0.305,,061021,,,"A*71
"
$GNRMC,053145.60,A,3355.40221,N,11818.43286,W,0.379,,061021,,,"A*7A
"
$GNRMC,053145.70,A,3355.40221,N,11818.43285,W,0.547,,061021,,,"A*73
"
$GNRMC,053145.80,A,3355.40224,N,11818.43278,W,1.120,75.50,061021,,,"A*56
"
$GNRMC,053145.90,A,3355.40227,N,11818.43274,W,1.209,67.00,061021,,,"A*56
"
$GNRMC,053146.00,A,3355.40226,N,11818.43273,W,0.853,65.81,061021,,,"A*55
"
$GNRMC,053146.10,A,3355.40224,N,11818.43277,W,0.617,,061021,,,"A*78
"
$GNRMC,053146.20,A,3355.40221,N,11818.43283,W,0.431,,061021,,,"A*73
"
$GNRMC,053146.30,A,3355.40220,N,11818.43290,W,0.238,,061021,,,"A*7E
"
$GNRMC,053146.40,A,3355.40220,N,11818.43288,W,0.165,,061021,,,"A*7B
"
$GNRMC,053146.50,A,3355.40221,N,11818.43284,W,0.273,,061021,,,"A*73
"
$GNRMC,053146.60,A,3355.40223,N,11818.43278,W,0.364,,061021,,,"A*76
"
$GNRMC,053146.70,A,3355.40224,N,11818.43274,W,0.555,,061021,,,"A*78
"
$GNRMC,053146.80,A,3355.40224,N,11818.43276,W,0.475,,061021,,,"A*76
"
$GNRMC,053146.90,A,3355.40224,N,11818.43277,W,0.354,,061021,,,"A*72
"
$GNRMC,053147.00,A,3355.40223,N,11818.43274,W,0.505,,061021,,,"A*7C
"
$GNRMC,053147.10,A,3355.40224,N,11818.43275,W,0.418,,061021,,,"A*76
"
$GNRMC,053147.20,A,3355.40224,N,11818.43274,W,0.459,,061021,,,"A*71
"
$GNRMC,053147.30,A,3355.40223,N,11818.43275,W,0.480,,061021,,,"A*72
"
$GNRMC,053147.40,A,3355.40222,N,11818.43277,W,0.445,,061021,,,"A*7F
"
$GNRMC,053147.50,A,3355.40221,N,11818.43279,W,0.371,,061021,,,"A*73
"
$GNRMC,053147.60,A,3355.40221,N,11818.43280,W,0.337,,061021,,,"A*74
"
$GNRMC,053147.70,A,3355.40219,N,11818.43280,W,0.282,,061021,,,"A*71
"
$GNRMC,053147.80,A,3355.40220,N,11818.43279,W,0.480,,061021,,,"A*76
"
$GNRMC,053147.90,A,3355.40219,N,11818.43282,W,0.359,,061021,,,"A*7A
"
$GNRMC,053148.00,A,3355.40217,N,11818.43284,W,0.142,,061021,,,"A*7C
"
$GNRMC,053148.10,A,3355.40215,N,11818.43288,W,0.042,,061021,,,"A*72
"
$GNRMC,053148.20,A,3355.40213,N,11818.43292,W,0.048,,061021,,,"A*76
"
$GNRMC,053148.30,A,3355.40212,N,11818.43298,W,0.255,,061021,,,"A*72
"
$GNRMC,053148.40,A,3355.40209,N,11818.43304,W,0.450,,061021,,,"A*78
"
$GNRMC,053148.50,A,3355.40207,N,11818.43307,W,0.541,,061021,,,"A*75
"
$GNRMC,053148.60,A,3355.40207,N,11818.43309,W,0.594,,061021,,,"A*70
"
$GNRMC,053148.70,A,3355.40211,N,11818.43298,W,0.277,,061021,,,"A*75
"
$GNRMC,053148.80,A,3355.40211,N,11818.43293,W,0.190,,061021,,,"A*7B
"
$GNRMC,053148.90,A,3355.40209,N,11818.43301,W,0.379,,061021,,,"A*7C
"
$GNRMC,053149.00,A,3355.40209,N,11818.43299,W,0.299,,061021,,,"A*7B
"
$GNRMC,053149.10,A,3355.40209,N,11818.43295,W,0.140,,061021,,,"A*71
"
$GNRMC,053149.20,A,3355.40208,N,11818.43298,W,0.152,,061021,,,"A*7D
"
$GNRMC,053149.30,A,3355.40206,N,11818.43303,W,0.170,,061021,,,"A*71
"
$GNRMC,053149.40,A,3355.40207,N,11818.43303,W,0.188,,061021,,,"A*70
"
$GNRMC,053149.50,A,3355.40207,N,11818.43298,W,0.322,,061021,,,"A*70
"
$GNRMC,053149.60,A,3355.40207,N,11818.43299,W,0.270,,061021,,,"A*74
"
$GNRMC,053149.70,A,3355.40205,N,11818.43303,W,0.148,,061021,,,"A*7D
"
$GNRMC,053149.80,A,3355.40204,N,11818.43305,W,0.080,,061021,,,"A*70
"
$GNRMC,053149.90,A,3355.40202,N,11818.43306,W,0.274,,061021,,,"A*7D
"
$GNRMC,053150.00,A,3355.40203,N,11818.43307,W,0.226,,061021,,,"A*7B
"
$GNRMC,053150.10,A,3355.40201,N,11818.43313,W,0.161,,061021,,,"A*7D
"
$GNRMC,053150.20,A,3355.40198,N,11818.43321,W,0.050,,061021,,,"A*7F
"
$GNRMC,053150.30,A,3355.40193,N,11818.43332,W,0.357,,061021,,,"A*73
"
$GNRMC,053150.40,A,3355.40192,N,11818.43332,W,0.477,,061021,,,"A*70
"
$GNRMC,053150.50,A,3355.40192,N,11818.43328,W,0.394,,061021,,,"A*70
"
$GNRMC,053150.60,A,3355.40194,N,11818.43320,W,0.186,,061021,,,"A*7C
"
$GNRMC,053150.70,A,3355.40194,N,11818.43320,W,0.150,,061021,,,"A*76
"
$GNRMC,053150.80,A,3355.40195,N,11818.43314,W,0.173,,061021,,,"A*7E
"
$GNRMC,053150.90,A,3355.40197,N,11818.43307,W,0.288,,061021,,,"A*78
"
$GNRMC,053151.00,A,3355.40198,N,11818.43301,W,0.411,,061021,,,"A*7F
"
$GNRMC,053151.10,A,3355.40198,N,11818.43301,W,0.344,,061021,,,"A*79
"
$GNRMC,053151.20,A,3355.40197,N,11818.43301,W,0.448,,061021,,,"A*7E
"
$GNRMC,053151.30,A,3355.40197,N,11818.43300,W,0.390,,061021,,,"A*7C
"
$GNRMC,053151.40,A,3355.40198,N,11818.43298,W,0.405,,061021,,,"A*7F
"
$GNRMC,053151.50,A,3355.40196,N,11818.43302,W,0.207,,061021,,,"A*76
"
$GNRMC,053151.60,A,3355.40193,N,11818.43310,W,0.100,,061021,,,"A*77
"
$GNRMC,053151.70,A,3355.40192,N,11818.43312,W,0.111,,061021,,,"A*75
"
$GNRMC,053151.80,A,3355.40193,N,11818.43309,W,0.065,,061021,,,"A*73
"
$GNRMC,053151.90,A,3355.40189,N,11818.43313,W,0.192,,061021,,,"A*7B
"
$GNRMC,053152.00,A,3355.40188,N,11818.43314,W,0.185,,061021,,,"A*71
"
$GNRMC,053152.10,A,3355.40191,N,11818.43304,W,0.173,,061021,,,"A*70
"
$GNRMC,053152.20,A,3355.40191,N,11818.43307,W,0.048,,061021,,,"A*79
"
$GNRMC,053152.30,A,3355.40188,N,11818.43313,W,0.115,,061021,,,"A*7C
"
$GNRMC,053152.40,A,3355.40188,N,11818.43316,W,0.150,,061021,,,"A*7F
"
$GNRMC,053152.50,A,3355.40188,N,11818.43312,W,0.083,,061021,,,"A*75
"
$GNRMC,053152.60,A,3355.40190,N,11818.43307,W,0.065,,061021,,,"A*73
"
$GNRMC,053152.70,A,3355.40191,N,11818.43303,W,0.165,,061021,,,"A*76
"
$GNRMC,053152.80,A,3355.40190,N,11818.43304,W,0.069,,061021,,,"A*72
"
$GNRMC,053152.90,A,3355.40189,N,11818.43306,W,0.064,,061021,,,"A*74
"
$GNRMC,053153.00,A,3355.40189,N,11818.43304,W,0.133,,061021,,,"A*7D
"
$GNRMC,053153.10,A,3355.40190,N,11818.43300,W,0.199,,061021,,,"A*70
"
$GNRMC,053153.20,A,3355.40191,N,11818.43294,W,0.339,,061021,,,"A*76
"
$GNRMC,053153.30,A,3355.40191,N,11818.43292,W,0.370,,061021,,,"A*7C
"
$GNRMC,053153.40,A,3355.40194,N,11818.43285,W,0.552,,061021,,,"A*7E
"
$GNRMC,053153.50,A,3355.40195,N,11818.43280,W,0.561,,061021,,,"A*7B
"
$GNRMC,053153.60,A,3355.40195,N,11818.43279,W,0.575,,061021,,,"A*7B
"
$GNRMC,053153.70,A,3355.40194,N,11818.43278,W,0.538,,061021,,,"A*73
"
$GNRMC,053153.80,A,3355.40193,N,11818.43281,W,0.401,,061021,,,"A*76
"
$GNRMC,053153.90,A,3355.40187,N,11818.43292,W,0.115,,061021,,,"A*70
"
$GNRMC,053154.00,A,3355.40185,N,11818.43300,W,0.076,,061021,,,"A*72
"
$GNRMC,053154.10,A,3355.40181,N,11818.43310,W,0.311,,061021,,,"A*74
"
$GNRMC,053154.20,A,3355.40179,N,11818.43320,W,0.490,,061021,,,"A*7D
"
$GNRMC,053154.30,A,3355.40178,N,11818.43317,W,0.413,,061021,,,"A*72
"
$GNRMC,053154.40,A,3355.40179,N,11818.43316,W,0.361,,061021,,,"A*77
"
$GNRMC,053154.50,A,3355.40176,N,11818.43323,W,0.448,,061021,,,"A*73
"
$GNRMC,053154.60,A,3355.40173,N,11818.43330,W,0.690,358.85,061021,,,"A*6D
"
$GNRMC,053154.70,A,3355.40176,N,11818.43324,W,0.443,,061021,,,"A*7D
"
$GNRMC,053154.80,A,3355.40175,N,11818.43324,W,0.490,,061021,,,"A*7F
"
$GNRMC,053154.90,A,3355.40175,N,11818.43323,W,0.413,,061021,,,"A*72
"
$GNRMC,053155.00,A,3355.40175,N,11818.43321,W,0.370,,061021,,,"A*7A
"
$GNRMC,053155.10,A,3355.40175,N,11818.43319,W,0.340,,061021,,,"A*73
"
$GNRMC,053155.20,A,3355.40176,N,11818.43316,W,0.255,,061021,,,"A*79
"
$GNRMC,053155.30,A,3355.40177,N,11818.43312,W,0.204,,061021,,,"A*79
"
$GNRMC,053155.40,A,3355.40175,N,11818.43316,W,0.243,,061021,,,"A*7B
"
$GNRMC,053155.50,A,3355.40171,N,11818.43327,W,0.501,,061021,,,"A*7D
"
$GNRMC,053155.60,A,3355.40170,N,11818.43329,W,0.556,,061021,,,"A*73
"
$GNRMC,053155.70,A,3355.40171,N,11818.43327,W,0.476,,061021,,,"A*7E
"
$GNRMC,053155.80,A,3355.40170,N,11818.43324,W,0.371,,061021,,,"A*73
"
$GNRMC,053155.90,A,3355.40175,N,11818.43313,W,0.111,,061021,,,"A*77
"
$GNRMC,053156.00,A,3355.40176,N,11818.43309,W,0.068,,061021,,,"A*7A
"
$GNRMC,053156.10,A,3355.40173,N,11818.43315,W,0.246,,061021,,,"A*7D
"
$GNRMC,053156.20,A,3355.40171,N,11818.43320,W,0.252,,061021,,,"A*7F
"
$GNRMC,053156.30,A,3355.40171,N,11818.43318,W,0.192,,061021,,,"A*7A
"
$GNRMC,053156.40,A,3355.40173,N,11818.43312,W,0.033,,061021,,,"A*7F
"
$GNRMC,053156.50,A,3355.40174,N,11818.43306,W,0.198,,061021,,,"A*7C
"
$GNRMC,053156.60,A,3355.40176,N,11818.43301,W,0.280,,061021,,,"A*70
"
$GNRMC,053156.70,A,3355.40177,N,11818.43295,W,0.393,,061021,,,"A*7F
"
$GNRMC,053156.80,A,3355.40175,N,11818.43300,W,0.251,,061021,,,"A*70
"
$GNRMC,053156.90,A,3355.40174,N,11818.43301,W,0.231,,061021,,,"A*77
"
$GNRMC,053157.00,A,3355.40175,N,11818.43299,W,0.302,,061021,,,"A*7F
"
$GNRMC,053157.10,A,3355.40175,N,11818.43297,W,0.273,,061021,,,"A*77
"
$GNRMC,053157.20,A,3355.40176,N,11818.43294,W,0.421,,061021,,,"A*75
"
$GNRMC,053157.30,A,3355.40176,N,11818.43294,W,0.510,,061021,,,"A*77
"
$GNRMC,053157.40,A,3355.40175,N,11818.43297,W,0.453,,061021,,,"A*76
"
$GNRMC,053157.50,A,3355.40172,N,11818.43302,W,0.296,,061021,,,"A*72
"
$GNRMC,053157.60,A,3355.40171,N,11818.43303,W,0.209,,061021,,,"A*75
"
$GNRMC,053157.70,A,3355.40176,N,11818.43289,W,0.582,,061021,,,"A*74
"
$GNRMC,053157.80,A,3355.40180,N,11818.43278,W,0.758,33.54,061021,,,"A*56
"
$GNRMC,053157.90,A,3355.40179,N,11818.43278,W,0.585,,061021,,,"A*7C
"
$GNRMC,053158.00,A,3355.40179,N,11818.43279,W,0.518,,061021,,,"A*7F
"
$GNRMC,053158.10,A,3355.40174,N,11818.43292,W,0.139,,061021,,,"A*71
"
$GNRMC,053158.20,A,3355.40175,N,11818.43290,W,0.208,,061021,,,"A*70
"
$GNRMC,053158.30,A,3355.40176,N,11818.43285,W,0.177,,061021,,,"A*7D
"
$GNRMC,053158.40,A,3355.40177,N,11818.43279,W,0.273,,061021,,,"A*7F
"
$GNRMC,053158.50,A,3355.40177,N,11818.43281,W,0.237,,061021,,,"A*79
"
$GNRMC,053158.60,A,3355.40177,N,11818.43282,W,0.187,,061021,,,"A*71
"
$GNRMC,053158.70,A,3355.40175,N,11818.43287,W,0.109,,061021,,,"A*71
"
$GNRMC,053158.80,A,3355.40173,N,11818.43292,W,0.099,,061021,,,"A*74
"
$GNRMC,053158.90,A,3355.40175,N,11818.43290,W,0.177,,061021,,,"A*70
"
$GNRMC,053159.00,A,3355.40177,N,11818.43281,W,0.120,,061021,,,"A*78
"
$GNRMC,053159.10,A,3355.40178,N,11818.43277,W,0.283,,061021,,,"A*75
"
$GNRMC,053159.20,A,3355.40179,N,11818.43276,W,0.258,,061021,,,"A*70
"
$GNRMC,053159.30,A,3355.40179,N,11818.43275,W,0.259,,061021,,,"A*73
"
$GNRMC,053159.40,A,3355.40179,N,11818.43276,W,0.229,,061021,,,"A*70
"
$GNRMC,053159.50,A,3355.40180,N,11818.43273,W,0.285,,061021,,,"A*74
"
$GNRMC,053159.60,A,3355.40181,N,11818.43270,W,0.257,,061021,,,"A*7A
"
$GNRMC,053159.70,A,3355.40182,N,11818.43266,W,0.363,,061021,,,"A*79
"
$GNRMC,053159.80,A,3355.40183,N,11818.43264,W,0.328,,061021,,,"A*7A
"
$GNRMC,053159.90,A,3355.40186,N,11818.43256,W,0.462,,061021,,,"A*76
"
$GNRMC,053200.00,A,3355.40188,N,11818.43250,W,0.495,,061021,,,"A*70
"
$GNRMC,053200.10,A,3355.40188,N,11818.43250,W,0.475,,061021,,,"A*7F
"
$GNRMC,053200.20,A,3355.40186,N,11818.43255,W,0.328,,061021,,,"A*78
"
$GNRMC,053200.30,A,3355.40184,N,11818.43259,W,0.134,,061021,,,"A*78
"
$GNRMC,053200.40,A,3355.40184,N,11818.43260,W,0.124,,061021,,,"A*74
"
$GNRMC,053200.50,A,3355.40185,N,11818.43259,W,0.240,,061021,,,"A*7F
"
$GNRMC,053200.60,A,3355.40183,N,11818.43261,W,0.028,,061021,,,"A*7D
"
$GNRMC,053200.70,A,3355.40182,N,11818.43264,W,0.018,,061021,,,"A*7B
"
$GNRMC,053200.80,A,3355.40180,N,11818.43269,W,0.220,,061021,,,"A*72
"
$GNRMC,053200.90,A,3355.40180,N,11818.43270,W,0.157,,061021,,,"A*78
"
$GNRMC,053201.00,A,3355.40178,N,11818.43275,W,0.173,,061021,,,"A*74
"
$GNRMC,053201.10,A,3355.40178,N,11818.43275,W,0.194,,061021,,,"A*7C
"
$GNRMC,053201.20,A,3355.40179,N,11818.43272,W,0.151,,061021,,,"A*70
"
$GNRMC,053201.30,A,3355.40179,N,11818.43271,W,0.135,,061021,,,"A*70
"
$GNRMC,053201.40,A,3355.40178,N,11818.43273,W,0.241,,061021,,,"A*74
"
$GNRMC,053201.50,A,3355.40178,N,11818.43274,W,0.285,,061021,,,"A*7A
"
$GNRMC,053201.60,A,3355.40178,N,11818.43273,W,0.089,,061021,,,"A*70
"
$GNRMC,053201.70,A,3355.40177,N,11818.43279,W,0.204,,061021,,,"A*73
"
$GNRMC,053201.80,A,3355.40176,N,11818.43280,W,0.321,,061021,,,"A*7D
"
$GNRMC,053201.90,A,3355.40177,N,11818.43278,W,0.301,,061021,,,"A*78
"
$GNRMC,053202.00,A,3355.40180,N,11818.43270,W,0.055,,061021,,,"A*70
"
$GNRMC,053202.10,A,3355.40181,N,11818.43267,W,0.031,,061021,,,"A*74
"
$GNRMC,053202.20,A,3355.40179,N,11818.43273,W,0.044,,061021,,,"A*77
"
$GNRMC,053202.30,A,3355.40178,N,11818.43275,W,0.033,,061021,,,"A*71
"
$GNRMC,053202.40,A,3355.40177,N,11818.43277,W,0.190,,061021,,,"A*73
"
$GNRMC,053202.50,A,3355.40178,N,11818.43275,W,0.214,,061021,,,"A*70
"
$GNRMC,053202.60,A,3355.40178,N,11818.43274,W,0.136,,061021,,,"A*71
"
$GNRMC,053202.70,A,3355.40178,N,11818.43277,W,0.290,,061021,,,"A*7C
"
$GNRMC,053202.80,A,3355.40176,N,11818.43282,W,0.522,,061021,,,"A*79
"
$GNRMC,053202.90,A,3355.40174,N,11818.43285,W,0.605,,061021,,,"A*7B
"
$GNRMC,053203.00,A,3355.40174,N,11818.43287,W,0.654,,061021,,,"A*75
"
$GNRMC,053203.10,A,3355.40176,N,11818.43282,W,0.471,,061021,,,"A*76
"
$GNRMC,053203.20,A,3355.40177,N,11818.43280,W,0.303,,061021,,,"A*74
"
$GNRMC,053203.30,A,3355.40179,N,11818.43274,W,0.137,,061021,,,"A*75
"
$GNRMC,053203.40,A,3355.40181,N,11818.43270,W,0.156,,061021,,,"A*76
"
$GNRMC,053203.50,A,3355.40182,N,11818.43268,W,0.115,,061021,,,"A*7A
"
$GNRMC,053203.60,A,3355.40181,N,11818.43271,W,0.172,,061021,,,"A*73
"
$GNRMC,053203.70,A,3355.40179,N,11818.43277,W,0.227,,061021,,,"A*70
"
$GNRMC,053203.80,A,3355.40179,N,11818.43275,W,0.161,,061021,,,"A*7C
"
$GNRMC,053203.90,A,3355.40181,N,11818.43267,W,0.046,,061021,,,"A*7D
"
$GNRMC,053204.00,A,3355.40182,N,11818.43264,W,0.025,,061021,,,"A*76
"
$GNRMC,053204.10,A,3355.40184,N,11818.43260,W,0.036,,061021,,,"A*77
"
$GNRMC,053204.20,A,3355.40185,N,11818.43256,W,0.082,,061021,,,"A*7F
"
$GNRMC,053204.30,A,3355.40187,N,11818.43249,W,0.217,,061021,,,"A*7C
"
$GNRMC,053204.40,A,3355.40189,N,11818.43242,W,0.325,,061021,,,"A*7E
"
$GNRMC,053204.50,A,3355.40190,N,11818.43241,W,0.298,,061021,,,"A*73
"
$GNRMC,053204.60,A,3355.40190,N,11818.43239,W,0.345,,061021,,,"A*7E
"
$GNRMC,053204.70,A,3355.40191,N,11818.43236,W,0.331,,061021,,,"A*72
"
$GNRMC,053204.80,A,3355.40192,N,11818.43235,W,0.317,,061021,,,"A*79
"
$GNRMC,053204.90,A,3355.40189,N,11818.43240,W,0.101,,061021,,,"A*75
"
$GNRMC,053205.00,A,3355.40190,N,11818.43236,W,0.108,,061021,,,"A*7D
"
$GNRMC,053205.10,A,3355.40189,N,11818.43239,W,0.041,,061021,,,"A*77
"
$GNRMC,053205.20,A,3355.40186,N,11818.43246,W,0.152,,061021,,,"A*70
"
$GNRMC,053205.30,A,3355.40186,N,11818.43250,W,0.331,,061021,,,"A*71
"
$GNRMC,053205.40,A,3355.40185,N,11818.43250,W,0.349,,061021,,,"A*7A
"
$GNRMC,053205.50,A,3355.40186,N,11818.43248,W,0.373,,061021,,,"A*78
"
$GNRMC,053205.60,A,3355.40186,N,11818.43246,W,0.343,,061021,,,"A*76
"
$GNRMC,053205.70,A,3355.40187,N,11818.43244,W,0.238,,061021,,,"A*79
"
$GNRMC,053205.80,A,3355.40189,N,11818.43241,W,0.034,,061021,,,"A*73
"
$GNRMC,053205.90,A,3355.40190,N,11818.43240,W,0.124,,061021,,,"A*7B
"
$GNRMC,053206.00,A,3355.40192,N,11818.43232,W,0.294,,061021,,,"A*7E
"
$GNRMC,053206.10,A,3355.40195,N,11818.43225,W,0.574,,061021,,,"A*77
"
$GNRMC,053206.20,A,3355.40197,N,11818.43219,W,0.849,54.71,061021,,,"A*53
"
$GNRMC,053206.30,A,3355.40199,N,11818.43217,W,0.843,60.07,061021,,,"A*5E
"
$GNRMC,053206.40,A,3355.40202,N,11818.43210,W,0.860,58.47,061021,,,"A*51
"
$GNRMC,053206.50,A,3355.40201,N,11818.43211,W,0.737,61.89,061021,,,"A*57
"
$GNRMC,053206.60,A,3355.40200,N,11818.43212,W,0.609,,061021,,,"A*72
"
$GNRMC,053206.70,A,3355.40200,N,11818.43215,W,0.422,,061021,,,"A*7F
"
$GNRMC,053206.80,A,3355.40199,N,11818.43218,W,0.422,,061021,,,"A*7E
"
$GNRMC,053206.90,A,3355.40198,N,11818.43222,W,0.345,,061021,,,"A*71
"
$GNRMC,053207.00,A,3355.40196,N,11818.43226,W,0.182,,061021,,,"A*7A
"
$GNRMC,053207.10,A,3355.40195,N,11818.43226,W,0.231,,061021,,,"A*73
"
$GNRMC,053207.20,A,3355.40196,N,11818.43228,W,0.160,,061021,,,"A*7A
"
$GNRMC,053207.30,A,3355.40196,N,11818.43228,W,0.151,,061021,,,"A*79
"
$GNRMC,053207.40,A,3355.40195,N,11818.43229,W,0.091,,061021,,,"A*71
"
$GNRMC,053207.50,A,3355.40195,N,11818.43229,W,0.070,,061021,,,"A*7F
"
$GNRMC,053207.60,A,3355.40196,N,11818.43227,W,0.137,,061021,,,"A*73
"
$GNRMC,053207.70,A,3355.40196,N,11818.43227,W,0.118,,061021,,,"A*7F
"
$GNRMC,053207.80,A,3355.40197,N,11818.43225,W,0.195,,061021,,,"A*76
"
$GNRMC,053207.90,A,3355.40198,N,11818.43223,W,0.262,,061021,,,"A*75
"
$GNRMC,053208.00,A,3355.40198,N,11818.43223,W,0.230,,061021,,,"A*74
"
$GNRMC,053208.10,A,3355.40198,N,11818.43227,W,0.166,,061021,,,"A*71
"
$GNRMC,053208.20,A,3355.40196,N,11818.43233,W,0.095,,061021,,,"A*74
"
$GNRMC,053208.30,A,3355.40194,N,11818.43241,W,0.305,,061021,,,"A*78
"
$GNRMC,053208.40,A,3355.40192,N,11818.43246,W,0.433,,061021,,,"A*7C
"
$GNRMC,053208.50,A,3355.40191,N,11818.43251,W,0.515,,061021,,,"A*7D
"
$GNRMC,053208.60,A,3355.40190,N,11818.43255,W,0.574,,061021,,,"A*7C
"
$GNRMC,053208.70,A,3355.40190,N,11818.43256,W,0.505,,061021,,,"A*78
"
$GNRMC,053208.80,A,3355.40190,N,11818.43255,W,0.481,,061021,,,"A*79
"
$GNRMC,053208.90,A,3355.40190,N,11818.43256,W,0.432,,061021,,,"A*73
"
$GNRMC,053209.00,A,3355.40187,N,11818.43266,W,0.619,,061021,,,"A*75
"
$GNRMC,053209.10,A,3355.40184,N,11818.43275,W,0.768,334.63,061021,,,"A*6D
"
$GNRMC,053209.20,A,3355.40183,N,11818.43278,W,0.719,288.04,061021,,,"A*65
"
$GNRMC,053209.30,A,3355.40180,N,11818.43286,W,0.936,261.08,061021,,,"A*6E
"
$GNRMC,053209.40,A,3355.40180,N,11818.43287,W,0.791,254.56,061021,,,"A*66
"
$GNRMC,053209.50,A,3355.40181,N,11818.43283,W,0.558,,061021,,,"A*7B
"
$GNRMC,053209.60,A,3355.40183,N,11818.43280,W,0.463,,061021,,,"A*70
"
$GNRMC,053209.70,A,3355.40185,N,11818.43275,W,0.246,,061021,,,"A*7C
"
$GNRMC,053209.80,A,3355.40185,N,11818.43276,W,0.237,,061021,,,"A*76
"
$GNRMC,053209.90,A,3355.40184,N,11818.43279,W,0.279,,061021,,,"A*73
"
$GNRMC,053210.00,A,3355.40185,N,11818.43277,W,0.203,,061021,,,"A*70
"
$GNRMC,053210.10,A,3355.40187,N,11818.43272,W,0.042,,061021,,,"A*71
"
$GNRMC,053210.20,A,3355.40188,N,11818.43269,W,0.119,,061021,,,"A*78
"
$GNRMC,053210.30,A,3355.40187,N,11818.43272,W,0.039,,061021,,,"A*7F
"
$GNRMC,053210.40,A,3355.40188,N,11818.43266,W,0.132,,061021,,,"A*78
"
$GNRMC,053210.50,A,3355.40189,N,11818.43268,W,0.064,,061021,,,"A*74
"
$GNRMC,053210.60,A,3355.40188,N,11818.43269,W,0.047,,061021,,,"A*76
"
$GNRMC,053210.70,A,3355.40187,N,11818.43273,W,0.116,,061021,,,"A*76
"
$GNRMC,053210.80,A,3355.40185,N,11818.43277,W,0.194,,061021,,,"A*75
"
$GNRMC,053210.90,A,3355.40183,N,11818.43284,W,0.134,,061021,,,"A*74
"
$GNRMC,053211.00,A,3355.40183,N,11818.43286,W,0.113,,061021,,,"A*7B
"
$GNRMC,053211.10,A,3355.40184,N,11818.43280,W,0.127,,061021,,,"A*7C
"
$GNRMC,053211.20,A,3355.40185,N,11818.43277,W,0.174,,061021,,,"A*70
"
$GNRMC,053211.30,A,3355.40184,N,11818.43283,W,0.041,,061021,,,"A*7C
"
$GNRMC,053211.40,A,3355.40183,N,11818.43288,W,0.063,,061021,,,"A*77
"
$GNRMC,053211.50,A,3355.40181,N,11818.43289,W,0.215,,061021,,,"A*76
"
$GNRMC,053211.60,A,3355.40181,N,11818.43290,W,0.199,,061021,,,"A*7A
"
$GNRMC,053211.70,A,3355.40182,N,11818.43288,W,0.175,,061021,,,"A*73
"
$GNRMC,053211.80,A,3355.40184,N,11818.43283,W,0.081,,061021,,,"A*7B
"
$GNRMC,053211.90,A,3355.40184,N,11818.43284,W,0.033,,061021,,,"A*74
"
$GNRMC,053212.00,A,3355.40183,N,11818.43286,W,0.052,,061021,,,"A*7C
"
$GNRMC,053212.10,A,3355.40185,N,11818.43282,W,0.093,,061021,,,"A*72
"
$GNRMC,053212.20,A,3355.40187,N,11818.43276,W,0.136,,061021,,,"A*76
"
$GNRMC,053212.30,A,3355.40187,N,11818.43276,W,0.121,,061021,,,"A*71
"
$GNRMC,053212.40,A,3355.40187,N,11818.43275,W,0.335,,061021,,,"A*72
"
$GNRMC,053212.50,A,3355.40187,N,11818.43278,W,0.416,,061021,,,"A*78
"
$GNRMC,053212.60,A,3355.40184,N,11818.43287,W,0.096,,061021,,,"A*74
"
$GNRMC,053212.70,A,3355.40181,N,11818.43295,W,0.039,,061021,,,"A*76
"
$GNRMC,053212.80,A,3355.40183,N,11818.43290,W,0.195,,061021,,,"A*79
"
$GNRMC,053212.90,A,3355.40182,N,11818.43290,W,0.333,,061021,,,"A*77
"
$GNRMC,053213.00,A,3355.40183,N,11818.43291,W,0.255,,061021,,,"A*7E
"
$GNRMC,053213.10,A,3355.40183,N,11818.43294,W,0.208,,061021,,,"A*72
"
$GNRMC,053213.20,A,3355.40186,N,11818.43283,W,0.455,,061021,,,"A*7C
"
$GNRMC,053213.30,A,3355.40185,N,11818.43287,W,0.342,,061021,,,"A*7B
"
$GNRMC,053213.40,A,3355.40181,N,11818.43299,W,0.081,,061021,,,"A*7B
"
$GNRMC,053213.50,A,3355.40180,N,11818.43302,W,0.233,,061021,,,"A*73
"
$GNRMC,053213.60,A,3355.40182,N,11818.43298,W,0.123,,061021,,,"A*72
"
$GNRMC,053213.70,A,3355.40182,N,11818.43300,W,0.122,,061021,,,"A*72
"
$GNRMC,053213.80,A,3355.40180,N,11818.43305,W,0.234,,061021,,,"A*7E
"
$GNRMC,053213.90,A,3355.40176,N,11818.43317,W,0.505,,061021,,,"A*70
"
$GNRMC,053214.00,A,3355.40174,N,11818.43323,W,0.579,,061021,,,"A*70
"
$GNRMC,053214.10,A,3355.40176,N,11818.43321,W,0.287,,061021,,,"A*77
"
$GNRMC,053214.20,A,3355.40178,N,11818.43312,W,0.171,,061021,,,"A*70
"
$GNRMC,053214.30,A,3355.40179,N,11818.43309,W,0.434,,061021,,,"A*7E
"
$GNRMC,053214.40,A,3355.40182,N,11818.43305,W,0.824,342.78,061021,,,"A*68
"
$GNRMC,053214.50,A,3355.40184,N,11818.43299,W,0.824,26.76,061021,,,"A*54
"
$GNRMC,053214.60,A,3355.40184,N,11818.43298,W,0.867,49.35,061021,,,"A*5F
"
$GNRMC,053214.70,A,3355.40185,N,11818.43298,W,0.949,60.12,061021,,,"A*5C
"
$GNRMC,053214.80,A,3355.40184,N,11818.43299,W,1.085,68.63,061021,,,"A*55
"
$GNRMC,053214.90,A,3355.40185,N,11818.43299,W,1.130,71.11,061021,,,"A*57
"
$GNRMC,053215.00,A,3355.40185,N,11818.43299,W,1.099,70.43,061021,,,"A*5B
"
$GNRMC,053215.10,A,3355.40185,N,11818.43300,W,0.987,69.37,061021,,,"A*57
"
$GNRMC,053215.20,A,3355.40183,N,11818.43306,W,0.845,67.29,061021,,,"A*5A
"
$GNRMC,053215.30,A,3355.40184,N,11818.43304,W,0.940,68.07,061021,,,"A*59
"
$GNRMC,053215.40,A,3355.40182,N,11818.43310,W,0.666,67.56,061021,,,"A*5D
"
$GNRMC,053215.50,A,3355.40182,N,11818.43311,W,0.558,,061021,,,"A*7F
"
$GNRMC,053215.60,A,3355.40183,N,11818.43311,W,0.434,,061021,,,"A*76
"
$GNRMC,053215.70,A,3355.40183,N,11818.43308,W,0.570,,061021,,,"A*7E
"
$GNRMC,053215.80,A,3355.40184,N,11818.43310,W,0.530,,061021,,,"A*7B
"
$GNRMC,053215.90,A,3355.40185,N,11818.43309,W,0.619,,061021,,,"A*7B
"
$GNRMC,053216.00,A,3355.40185,N,11818.43307,W,0.750,67.60,061021,,,"A*5A
"
$GNRMC,053216.10,A,3355.40185,N,11818.43309,W,0.649,65.48,061021,,,"A*54
"
$GNRMC,053216.20,A,3355.40186,N,11818.43305,W,0.729,64.22,061021,,,"A*52
"
$GNRMC,053216.30,A,3355.40187,N,11818.43303,W,0.754,65.15,061021,,,"A*5B
"
$GNRMC,053216.40,A,3355.40191,N,11818.43294,W,1.081,65.15,061021,,,"A*5A
"
$GNRMC,053216.50,A,3355.40192,N,11818.43292,W,0.983,64.55,061021,,,"A*51
"
$GNRMC,053216.60,A,3355.40193,N,11818.43288,W,1.006,65.75,061021,,,"A*5E
"
$GNRMC,053216.70,A,3355.40193,N,11818.43290,W,1.006,66.94,061021,,,"A*5A
"
$GNRMC,053216.80,A,3355.40194,N,11818.43289,W,1.036,66.41,061021,,,"A*51
"
$GNRMC,053216.90,A,3355.40195,N,11818.43288,W,1.031,64.85,061021,,,"A*5D
"
$GNRMC,053217.00,A,3355.40195,N,11818.43286,W,0.889,64.82,061021,,,"A*56
"
$GNRMC,053217.10,A,3355.40197,N,11818.43283,W,0.839,61.33,061021,,,"A*54
"
$GNRMC,053217.20,A,3355.40198,N,11818.43279,W,0.790,62.41,061021,,,"A*57
"
