$GNRMC,054143.20,A,3355.40223,N,11818.43517,W,0.163,,061021,,,"A*7B
"
$GNRMC,054143.30,A,3355.40223,N,11818.43518,W,0.233,,061021,,,"A*73
"
$GNRMC,054143.40,A,3355.40222,N,11818.43517,W,0.270,,061021,,,"A*7D
"
$GNRMC,054143.50,A,3355.40223,N,11818.43516,W,0.129,,061021,,,"A*73
"
$GNRMC,054143.60,A,3355.40223,N,11818.43516,W,0.119,,061021,,,"A*73
"
$GNRMC,054143.70,A,3355.40222,N,11818.43515,W,0.172,,061021,,,"A*7D
"
$GNRMC,054143.80,A,3355.40222,N,11818.43513,W,0.105,,061021,,,"A*74
"
$GNRMC,054143.90,A,3355.40221,N,11818.43516,W,0.281,,061021,,,"A*7C
"
$GNRMC,054144.00,A,3355.40220,N,11818.43517,W,0.270,,061021,,,"A*7C
"
$GNRMC,054144.10,A,3355.40220,N,11818.43518,W,0.241,,061021,,,"A*70
"
$GNRMC,054144.20,A,3355.40219,N,11818.43519,W,0.285,,061021,,,"A*70
"
$GNRMC,054144.30,A,3355.40220,N,11818.43518,W,0.204,,061021,,,"A*73
"
$GNRMC,054144.40,A,3355.40221,N,11818.43518,W,0.139,,061021,,,"A*78
"
$GNRMC,054144.50,A,3355.40219,N,11818.43518,W,0.135,,061021,,,"A*7E
"
$GNRMC,054144.60,A,3355.40219,N,11818.43520,W,0.212,,061021,,,"A*70
"
$GNRMC,054144.70,A,3355.40219,N,11818.43520,W,0.247,,061021,,,"A*71
"
$GNRMC,054144.80,A,3355.40219,N,11818.43520,W,0.206,,061021,,,"A*7B
"
$GNRMC,054144.90,A,3355.40217,N,11818.43522,W,0.367,,061021,,,"A*70
"
$GNRMC,054145.00,A,3355.40217,N,11818.43523,W,0.310,,061021,,,"A*79
"
$GNRMC,054145.10,A,3355.40217,N,11818.43522,W,0.149,,061021,,,"A*77
"
$GNRMC,054145.20,A,3355.40219,N,11818.43520,W,0.035,,061021,,,"A*72
"
$GNRMC,054145.30,A,3355.40219,N,11818.43521,W,0.111,,061021,,,"A*75
"
$GNRMC,054145.40,A,3355.40219,N,11818.43520,W,0.107,,061021,,,"A*74
"
$GNRMC,054145.50,A,3355.40220,N,11818.43519,W,0.094,,061021,,,"A*7E
"
$GNRMC,054145.60,A,3355.40220,N,11818.43520,W,0.107,,061021,,,"A*7C
"
$GNRMC,054145.70,A,3355.40221,N,11818.43517,W,0.114,,061021,,,"A*7A
"
$GNRMC,054145.80,A,3355.40222,N,11818.43517,W,0.132,,061021,,,"A*72
"
$GNRMC,054145.90,A,3355.40222,N,11818.43517,W,0.133,,061021,,,"A*72
"
$GNRMC,054146.00,A,3355.40223,N,11818.43516,W,0.127,,061021,,,"A*7D
"
$GNRMC,054146.10,A,3355.40223,N,11818.43517,W,0.045,,061021,,,"A*78
"
$GNRMC,054146.20,A,3355.40223,N,11818.43517,W,0.172,,061021,,,"A*7E
"
$GNRMC,054146.30,A,3355.40225,N,11818.43514,W,0.168,,061021,,,"A*71
"
$GNRMC,054146.40,A,3355.40225,N,11818.43515,W,0.099,,061021,,,"A*78
"
$GNRMC,054146.50,A,3355.40225,N,11818.43514,W,0.173,,061021,,,"A*7D
"
$GNRMC,054146.60,A,3355.40226,N,11818.43512,W,0.175,,061021,,,"A*7D
"
$GNRMC,054146.70,A,3355.40226,N,11818.43510,W,0.301,,061021,,,"A*7F
"
$GNRMC,054146.80,A,3355.40226,N,11818.43510,W,0.494,,061021,,,"A*7B
"
$GNRMC,054146.90,A,3355.40226,N,11818.43513,W,0.333,,061021,,,"A*73
"
$GNRMC,054147.00,A,3355.40226,N,11818.43512,W,0.280,,061021,,,"A*73
"
$GNRMC,054147.10,A,3355.40225,N,11818.43514,W,0.053,,061021,,,"A*7B
"
$GNRMC,054147.20,A,3355.40226,N,11818.43513,W,0.029,,061021,,,"A*71
"
$GNRMC,054147.30,A,3355.40226,N,11818.43512,W,0.108,,061021,,,"A*73
"
$GNRMC,054147.40,A,3355.40227,N,11818.43513,W,0.081,,061021,,,"A*74
"
$GNRMC,054147.50,A,3355.40228,N,11818.43511,W,0.156,,061021,,,"A*73
"
$GNRMC,054147.60,A,3355.40229,N,11818.43508,W,0.274,,061021,,,"A*7A
"
$GNRMC,054147.70,A,3355.40229,N,11818.43507,W,0.213,,061021,,,"A*75
"
$GNRMC,054147.80,A,3355.40229,N,11818.43506,W,0.249,,061021,,,"A*74
"
$GNRMC,054147.90,A,3355.40229,N,11818.43505,W,0.214,,061021,,,"A*7E
"
$GNRMC,054148.00,A,3355.40230,N,11818.43505,W,0.304,,061021,,,"A*70
"
$GNRMC,054148.10,A,3355.40230,N,11818.43505,W,0.306,,061021,,,"A*73
"
$GNRMC,054148.20,A,3355.40229,N,11818.43506,W,0.182,,061021,,,"A*75
"
$GNRMC,054148.30,A,3355.40229,N,11818.43508,W,0.021,,061021,,,"A*72
"
$GNRMC,054148.40,A,3355.40230,N,11818.43507,W,0.080,,061021,,,"A*79
"
$GNRMC,054148.50,A,3355.40230,N,11818.43507,W,0.088,,061021,,,"A*70
"
$GNRMC,054148.60,A,3355.40231,N,11818.43509,W,0.072,,061021,,,"A*79
"
$GNRMC,054148.70,A,3355.40231,N,11818.43507,W,0.029,,061021,,,"A*78
"
$GNRMC,054148.80,A,3355.40232,N,11818.43505,W,0.122,,061021,,,"A*7C
"
$GNRMC,054148.90,A,3355.40232,N,11818.43509,W,0.135,,061021,,,"A*77
"
$GNRMC,054149.00,A,3355.40232,N,11818.43509,W,0.120,,061021,,,"A*7B
"
$GNRMC,054149.10,A,3355.40233,N,11818.43509,W,0.067,,061021,,,"A*79
"
$GNRMC,054149.20,A,3355.40232,N,11818.43505,W,0.168,,061021,,,"A*79
"
$GNRMC,054149.30,A,3355.40232,N,11818.43506,W,0.112,,061021,,,"A*76
"
$GNRMC,054149.40,A,3355.40232,N,11818.43507,W,0.049,,061021,,,"A*7F
"
$GNRMC,054149.50,A,3355.40233,N,11818.43505,W,0.091,,061021,,,"A*78
"
$GNRMC,054149.60,A,3355.40234,N,11818.43503,W,0.152,,061021,,,"A*74
"
$GNRMC,054149.70,A,3355.40235,N,11818.43500,W,0.188,,061021,,,"A*70
"
$GNRMC,054149.80,A,3355.40235,N,11818.43498,W,0.213,,061021,,,"A*7E
"
$GNRMC,054149.90,A,3355.40235,N,11818.43500,W,0.116,,061021,,,"A*79
"
$GNRMC,054150.00,A,3355.40235,N,11818.43503,W,0.159,,061021,,,"A*70
"
$GNRMC,054150.10,A,3355.40236,N,11818.43500,W,0.095,,061021,,,"A*70
"
$GNRMC,054150.20,A,3355.40236,N,11818.43500,W,0.047,,061021,,,"A*7C
"
$GNRMC,054150.30,A,3355.40237,N,11818.43501,W,0.163,,061021,,,"A*7A
"
$GNRMC,054150.40,A,3355.40236,N,11818.43500,W,0.090,,061021,,,"A*70
"
$GNRMC,054150.50,A,3355.40237,N,11818.43498,W,0.066,,061021,,,"A*79
"
$GNRMC,054150.60,A,3355.40237,N,11818.43495,W,0.147,,061021,,,"A*75
"
$GNRMC,054150.70,A,3355.40239,N,11818.43495,W,0.203,,061021,,,"A*79
"
$GNRMC,054150.80,A,3355.40239,N,11818.43495,W,0.175,,061021,,,"A*74
"
$GNRMC,054150.90,A,3355.40240,N,11818.43492,W,0.236,,061021,,,"A*78
"
$GNRMC,054151.00,A,3355.40242,N,11818.43489,W,0.293,,061021,,,"A*77
"
$GNRMC,054151.10,A,3355.40242,N,11818.43489,W,0.262,,061021,,,"A*78
"
$GNRMC,054151.20,A,3355.40243,N,11818.43488,W,0.231,,061021,,,"A*7D
"
$GNRMC,054151.30,A,3355.40242,N,11818.43490,W,0.297,,061021,,,"A*78
"
$GNRMC,054151.40,A,3355.40243,N,11818.43489,W,0.123,,061021,,,"A*7A
"
$GNRMC,054151.50,A,3355.40244,N,11818.43488,W,0.085,,061021,,,"A*70
"
$GNRMC,054151.60,A,3355.40244,N,11818.43488,W,0.078,,061021,,,"A*71
"
$GNRMC,054151.70,A,3355.40243,N,11818.43488,W,0.217,,061021,,,"A*7C
"
$GNRMC,054151.80,A,3355.40244,N,11818.43483,W,0.110,,061021,,,"A*7B
"
$GNRMC,054151.90,A,3355.40244,N,11818.43482,W,0.252,,061021,,,"A*7E
"
$GNRMC,054152.00,A,3355.40245,N,11818.43482,W,0.239,,061021,,,"A*78
"
$GNRMC,054152.10,A,3355.40244,N,11818.43481,W,0.174,,061021,,,"A*71
"
$GNRMC,054152.20,A,3355.40246,N,11818.43478,W,0.183,,061021,,,"A*7E
"
$GNRMC,054152.30,A,3355.40246,N,11818.43476,W,0.253,,061021,,,"A*7F
"
$GNRMC,054152.40,A,3355.40246,N,11818.43475,W,0.218,,061021,,,"A*74
"
$GNRMC,054152.50,A,3355.40249,N,11818.43473,W,0.273,,061021,,,"A*71
"
$GNRMC,054152.60,A,3355.40249,N,11818.43475,W,0.202,,061021,,,"A*72
"
$GNRMC,054152.70,A,3355.40248,N,11818.43473,W,0.176,,061021,,,"A*74
"
$GNRMC,054152.80,A,3355.40248,N,11818.43473,W,0.088,,061021,,,"A*7B
"
$GNRMC,054152.90,A,3355.40248,N,11818.43473,W,0.093,,061021,,,"A*70
"
$GNRMC,054153.00,A,3355.40248,N,11818.43473,W,0.186,,061021,,,"A*7D
"
$GNRMC,054153.10,A,3355.40248,N,11818.43473,W,0.049,,061021,,,"A*7E
"
$GNRMC,054153.20,A,3355.40249,N,11818.43471,W,0.095,,061021,,,"A*7F
"
$GNRMC,054153.30,A,3355.40249,N,11818.43473,W,0.130,,061021,,,"A*72
"
$GNRMC,054153.40,A,3355.40250,N,11818.43473,W,0.085,,061021,,,"A*72
"
$GNRMC,054153.50,A,3355.40249,N,11818.43472,W,0.186,,061021,,,"A*78
"
$GNRMC,054153.60,A,3355.40250,N,11818.43472,W,0.098,,061021,,,"A*7D
"
$GNRMC,054153.70,A,3355.40251,N,11818.43471,W,0.109,,061021,,,"A*77
"
$GNRMC,054153.80,A,3355.40252,N,11818.43469,W,0.205,,061021,,,"A*7D
"
$GNRMC,054153.90,A,3355.40251,N,11818.43471,W,0.093,,061021,,,"A*7B
"
$GNRMC,054154.00,A,3355.40250,N,11818.43474,W,0.211,,061021,,,"A*79
"
$GNRMC,054154.10,A,3355.40251,N,11818.43475,W,0.147,,061021,,,"A*78
"
$GNRMC,054154.20,A,3355.40251,N,11818.43476,W,0.104,,061021,,,"A*7F
"
$GNRMC,054154.30,A,3355.40251,N,11818.43476,W,0.178,,061021,,,"A*75
"
$GNRMC,054154.40,A,3355.40253,N,11818.43477,W,0.158,,061021,,,"A*73
"
$GNRMC,054154.50,A,3355.40252,N,11818.43478,W,0.153,,061021,,,"A*77
"
$GNRMC,054154.60,A,3355.40251,N,11818.43480,W,0.276,,061021,,,"A*74
"
$GNRMC,054154.70,A,3355.40251,N,11818.43480,W,0.246,,061021,,,"A*76
"
$GNRMC,054154.80,A,3355.40251,N,11818.43483,W,0.284,,061021,,,"A*74
"
$GNRMC,054154.90,A,3355.40250,N,11818.43485,W,0.365,,061021,,,"A*7C
"
$GNRMC,054155.00,A,3355.40250,N,11818.43488,W,0.407,,061021,,,"A*7A
"
$GNRMC,054155.10,A,3355.40250,N,11818.43490,W,0.446,,061021,,,"A*77
"
$GNRMC,054155.20,A,3355.40249,N,11818.43491,W,0.445,,061021,,,"A*7E
"
$GNRMC,054155.30,A,3355.40249,N,11818.43492,W,0.438,,061021,,,"A*76
"
$GNRMC,054155.40,A,3355.40248,N,11818.43492,W,0.491,,061021,,,"A*73
"
$GNRMC,054155.50,A,3355.40247,N,11818.43495,W,0.599,,061021,,,"A*73
"
$GNRMC,054155.60,A,3355.40247,N,11818.43494,W,0.479,,061021,,,"A*7E
"
$GNRMC,054155.70,A,3355.40246,N,11818.43495,W,0.476,,061021,,,"A*70
"
$GNRMC,054155.80,A,3355.40248,N,11818.43492,W,0.234,,061021,,,"A*76
"
$GNRMC,054155.90,A,3355.40247,N,11818.43494,W,0.372,,061021,,,"A*7D
"
$GNRMC,054156.00,A,3355.40248,N,11818.43489,W,0.015,,061021,,,"A*76
"
$GNRMC,054156.10,A,3355.40248,N,11818.43489,W,0.066,,061021,,,"A*73
"
$GNRMC,054156.20,A,3355.40247,N,11818.43491,W,0.208,,061021,,,"A*7C
"
$GNRMC,054156.30,A,3355.40248,N,11818.43484,W,0.052,,061021,,,"A*7B
"
$GNRMC,054156.40,A,3355.40252,N,11818.43473,W,0.613,,061021,,,"A*7C
"
$GNRMC,054156.50,A,3355.40256,N,11818.43464,W,0.962,64.36,061021,,,"A*5F
"
$GNRMC,054156.60,A,3355.40255,N,11818.43463,W,0.808,67.38,061021,,,"A*58
"
$GNRMC,054156.70,A,3355.40255,N,11818.43463,W,0.603,,061021,,,"A*78
"
$GNRMC,054156.80,A,3355.40255,N,11818.43458,W,0.658,68.90,061021,,,"A*58
"
$GNRMC,054156.90,A,3355.40256,N,11818.43458,W,0.645,67.43,061021,,,"A*57
"
$GNRMC,054157.00,A,3355.40256,N,11818.43458,W,0.563,,061021,,,"A*70
"
$GNRMC,054157.10,A,3355.40256,N,11818.43458,W,0.353,,061021,,,"A*74
"
$GNRMC,054157.20,A,3355.40256,N,11818.43455,W,0.420,,061021,,,"A*79
"
$GNRMC,054157.30,A,3355.40255,N,11818.43455,W,0.282,,061021,,,"A*75
"
$GNRMC,054157.40,A,3355.40254,N,11818.43460,W,0.045,,061021,,,"A*7C
"
$GNRMC,054157.50,A,3355.40254,N,11818.43458,W,0.205,,061021,,,"A*70
"
$GNRMC,054157.60,A,3355.40253,N,11818.43459,W,0.173,,061021,,,"A*77
"
$GNRMC,054157.70,A,3355.40252,N,11818.43459,W,0.242,,061021,,,"A*76
"
$GNRMC,054157.80,A,3355.40252,N,11818.43460,W,0.328,,061021,,,"A*7E
"
$GNRMC,054157.90,A,3355.40251,N,11818.43464,W,0.351,,061021,,,"A*76
"
$GNRMC,054158.00,A,3355.40250,N,11818.43463,W,0.395,,061021,,,"A*7E
"
$GNRMC,054158.10,A,3355.40249,N,11818.43465,W,0.357,,061021,,,"A*7F
"
$GNRMC,054158.20,A,3355.40249,N,11818.43464,W,0.257,,061021,,,"A*7C
"
$GNRMC,054158.30,A,3355.40248,N,11818.43464,W,0.143,,061021,,,"A*7A
"
$GNRMC,054158.40,A,3355.40249,N,11818.43461,W,0.178,,061021,,,"A*71
"
$GNRMC,054158.50,A,3355.40248,N,11818.43462,W,0.201,,061021,,,"A*7F
"
$GNRMC,054158.60,A,3355.40249,N,11818.43460,W,0.179,,061021,,,"A*73
"
$GNRMC,054158.70,A,3355.40248,N,11818.43459,W,0.167,,061021,,,"A*76
"
$GNRMC,054158.80,A,3355.40249,N,11818.43457,W,0.169,,061021,,,"A*78
"
$GNRMC,054158.90,A,3355.40250,N,11818.43455,W,0.256,,061021,,,"A*7C
"
$GNRMC,054159.00,A,3355.40250,N,11818.43452,W,0.396,,061021,,,"A*7E
"
$GNRMC,054159.10,A,3355.40252,N,11818.43449,W,0.534,,061021,,,"A*79
"
$GNRMC,054159.20,A,3355.40252,N,11818.43446,W,0.478,,061021,,,"A*7C
"
$GNRMC,054159.30,A,3355.40253,N,11818.43446,W,0.426,,061021,,,"A*77
"
$GNRMC,054159.40,A,3355.40253,N,11818.43446,W,0.472,,061021,,,"A*71
"
$GNRMC,054159.50,A,3355.40253,N,11818.43445,W,0.451,,061021,,,"A*72
"
$GNRMC,054159.60,A,3355.40251,N,11818.43449,W,0.214,,061021,,,"A*78
"
$GNRMC,054159.70,A,3355.40252,N,11818.43446,W,0.284,,061021,,,"A*7C
"
$GNRMC,054159.80,A,3355.40251,N,11818.43447,W,0.171,,061021,,,"A*78
"
$GNRMC,054159.90,A,3355.40253,N,11818.43444,W,0.345,,061021,,,"A*7D
"
$GNRMC,054200.00,A,3355.40254,N,11818.43441,W,0.472,,061021,,,"A*7A
"
$GNRMC,054200.10,A,3355.40253,N,11818.43441,W,0.321,,061021,,,"A*7D
"
$GNRMC,054200.20,A,3355.40254,N,11818.43440,W,0.235,,061021,,,"A*7C
"
$GNRMC,054200.30,A,3355.40254,N,11818.43439,W,0.232,,061021,,,"A*74
"
$GNRMC,054200.40,A,3355.40252,N,11818.43439,W,0.144,,061021,,,"A*77
"
$GNRMC,054200.50,A,3355.40254,N,11818.43438,W,0.187,,061021,,,"A*7E
"
$GNRMC,054200.60,A,3355.40254,N,11818.43438,W,0.167,,061021,,,"A*73
"
$GNRMC,054200.70,A,3355.40253,N,11818.43440,W,0.065,,061021,,,"A*79
"
$GNRMC,054200.80,A,3355.40253,N,11818.43439,W,0.071,,061021,,,"A*7D
"
$GNRMC,054200.90,A,3355.40254,N,11818.43436,W,0.157,,061021,,,"A*71
"
$GNRMC,054201.00,A,3355.40254,N,11818.43436,W,0.181,,061021,,,"A*72
"
$GNRMC,054201.10,A,3355.40254,N,11818.43439,W,0.050,,061021,,,"A*71
"
$GNRMC,054201.20,A,3355.40255,N,11818.43434,W,0.252,,061021,,,"A*7E
"
$GNRMC,054201.30,A,3355.40254,N,11818.43435,W,0.124,,061021,,,"A*7D
"
$GNRMC,054201.40,A,3355.40254,N,11818.43436,W,0.130,,061021,,,"A*7C
"
$GNRMC,054201.50,A,3355.40255,N,11818.43436,W,0.162,,061021,,,"A*7B
"
$GNRMC,054201.60,A,3355.40256,N,11818.43433,W,0.268,,061021,,,"A*77
"
$GNRMC,054201.70,A,3355.40255,N,11818.43433,W,0.221,,061021,,,"A*78
"
$GNRMC,054201.80,A,3355.40255,N,11818.43433,W,0.219,,061021,,,"A*7C
"
$GNRMC,054201.90,A,3355.40255,N,11818.43435,W,0.059,,061021,,,"A*7D
"
$GNRMC,054202.00,A,3355.40254,N,11818.43435,W,0.044,,061021,,,"A*7A
"
$GNRMC,054202.10,A,3355.40254,N,11818.43435,W,0.031,,061021,,,"A*79
"
$GNRMC,054202.20,A,3355.40253,N,11818.43434,W,0.118,,061021,,,"A*76
"
$GNRMC,054202.30,A,3355.40253,N,11818.43435,W,0.191,,061021,,,"A*77
"
$GNRMC,054202.40,A,3355.40253,N,11818.43436,W,0.125,,061021,,,"A*7C
"
$GNRMC,054202.50,A,3355.40253,N,11818.43438,W,0.115,,061021,,,"A*70
"
$GNRMC,054202.60,A,3355.40254,N,11818.43437,W,0.096,,061021,,,"A*71
"
$GNRMC,054202.70,A,3355.40254,N,11818.43437,W,0.169,,061021,,,"A*71
"
$GNRMC,054202.80,A,3355.40255,N,11818.43434,W,0.341,,061021,,,"A*74
"
$GNRMC,054202.90,A,3355.40255,N,11818.43436,W,0.190,,061021,,,"A*79
"
$GNRMC,054203.00,A,3355.40254,N,11818.43437,W,0.098,,061021,,,"A*78
"
$GNRMC,054203.10,A,3355.40255,N,11818.43436,W,0.114,,061021,,,"A*7C
"
$GNRMC,054203.20,A,3355.40254,N,11818.43438,W,0.079,,061021,,,"A*7A
"
$GNRMC,054203.30,A,3355.40253,N,11818.43440,W,0.044,,061021,,,"A*7D
"
$GNRMC,054203.40,A,3355.40253,N,11818.43440,W,0.085,,061021,,,"A*77
"
$GNRMC,054203.50,A,3355.40253,N,11818.43441,W,0.029,,061021,,,"A*71
"
$GNRMC,054203.60,A,3355.40252,N,11818.43443,W,0.108,,061021,,,"A*73
"
$GNRMC,054203.70,A,3355.40251,N,11818.43444,W,0.145,,061021,,,"A*7F
"
$GNRMC,054203.80,A,3355.40252,N,11818.43444,W,0.045,,061021,,,"A*72
"
$GNRMC,054203.90,A,3355.40251,N,11818.43447,W,0.186,,061021,,,"A*7D
"
$GNRMC,054204.00,A,3355.40249,N,11818.43448,W,0.271,,061021,,,"A*7E
"
$GNRMC,054204.10,A,3355.40249,N,11818.43448,W,0.181,,061021,,,"A*73
"
$GNRMC,054204.20,A,3355.40250,N,11818.43451,W,0.097,,061021,,,"A*76
"
$GNRMC,054204.30,A,3355.40248,N,11818.43452,W,0.235,,061021,,,"A*77
"
$GNRMC,054204.40,A,3355.40246,N,11818.43452,W,0.292,,061021,,,"A*73
"
$GNRMC,054204.50,A,3355.40247,N,11818.43450,W,0.105,,061021,,,"A*7C
"
$GNRMC,054204.60,A,3355.40247,N,11818.43451,W,0.198,,061021,,,"A*7A
"
$GNRMC,054204.70,A,3355.40247,N,11818.43454,W,0.250,,061021,,,"A*79
"
$GNRMC,054204.80,A,3355.40247,N,11818.43454,W,0.065,,061021,,,"A*72
"
$GNRMC,054204.90,A,3355.40247,N,11818.43453,W,0.057,,061021,,,"A*75
"
$GNRMC,054205.00,A,3355.40249,N,11818.43452,W,0.219,,061021,,,"A*7A
"
$GNRMC,054205.10,A,3355.40250,N,11818.43452,W,0.289,,061021,,,"A*7A
"
$GNRMC,054205.20,A,3355.40250,N,11818.43455,W,0.181,,061021,,,"A*75
"
$GNRMC,054205.30,A,3355.40251,N,11818.43453,W,0.273,,061021,,,"A*7D
"
$GNRMC,054205.40,A,3355.40252,N,11818.43454,W,0.292,,061021,,,"A*71
"
$GNRMC,054205.50,A,3355.40252,N,11818.43455,W,0.082,,061021,,,"A*72
"
$GNRMC,054205.60,A,3355.40251,N,11818.43457,W,0.108,,061021,,,"A*73
"
$GNRMC,054205.70,A,3355.40252,N,11818.43456,W,0.078,,061021,,,"A*76
"
$GNRMC,054205.80,A,3355.40252,N,11818.43456,W,0.141,,061021,,,"A*72
"
$GNRMC,054205.90,A,3355.40251,N,11818.43456,W,0.159,,061021,,,"A*79
"
$GNRMC,054206.00,A,3355.40251,N,11818.43453,W,0.039,,061021,,,"A*71
"
$GNRMC,054206.10,A,3355.40250,N,11818.43455,W,0.155,,061021,,,"A*7C
"
$GNRMC,054206.20,A,3355.40251,N,11818.43455,W,0.042,,061021,,,"A*79
"
$GNRMC,054206.30,A,3355.40251,N,11818.43455,W,0.067,,061021,,,"A*7F
"
$GNRMC,054206.40,A,3355.40251,N,11818.43455,W,0.024,,061021,,,"A*7F
"
$GNRMC,054206.50,A,3355.40251,N,11818.43455,W,0.024,,061021,,,"A*7E
"
$GNRMC,054206.60,A,3355.40250,N,11818.43455,W,0.145,,061021,,,"A*7A
"
$GNRMC,054206.70,A,3355.40250,N,11818.43456,W,0.104,,061021,,,"A*7D
"
$GNRMC,054206.80,A,3355.40250,N,11818.43455,W,0.038,,061021,,,"A*7F
"
$GNRMC,054206.90,A,3355.40250,N,11818.43457,W,0.179,,061021,,,"A*78
"
$GNRMC,054207.00,A,3355.40250,N,11818.43456,W,0.130,,061021,,,"A*7C
"
$GNRMC,054207.10,A,3355.40251,N,11818.43458,W,0.144,,061021,,,"A*71
"
$GNRMC,054207.20,A,3355.40251,N,11818.43457,W,0.017,,061021,,,"A*7A
"
$GNRMC,054207.30,A,3355.40251,N,11818.43456,W,0.025,,061021,,,"A*7B
"
$GNRMC,054207.40,A,3355.40250,N,11818.43457,W,0.116,,061021,,,"A*7D
"
$GNRMC,054207.50,A,3355.40251,N,11818.43457,W,0.175,,061021,,,"A*78
"
$GNRMC,054207.60,A,3355.40249,N,11818.43456,W,0.160,,061021,,,"A*77
"
$GNRMC,054207.70,A,3355.40251,N,11818.43455,W,0.151,,061021,,,"A*7E
"
$GNRMC,054207.80,A,3355.40250,N,11818.43456,W,0.062,,061021,,,"A*72
"
$GNRMC,054207.90,A,3355.40251,N,11818.43453,W,0.228,,061021,,,"A*7B
"
$GNRMC,054208.00,A,3355.40250,N,11818.43452,W,0.083,,061021,,,"A*7E
"
$GNRMC,054208.10,A,3355.40250,N,11818.43450,W,0.073,,061021,,,"A*72
"
$GNRMC,054208.20,A,3355.40249,N,11818.43449,W,0.067,,061021,,,"A*74
"
$GNRMC,054208.30,A,3355.40250,N,11818.43448,W,0.205,,061021,,,"A*7A
"
$GNRMC,054208.40,A,3355.40250,N,11818.43449,W,0.148,,061021,,,"A*76
"
$GNRMC,054208.50,A,3355.40250,N,11818.43449,W,0.091,,061021,,,"A*72
"
$GNRMC,054208.60,A,3355.40249,N,11818.43450,W,0.068,,061021,,,"A*77
"
$GNRMC,054208.70,A,3355.40249,N,11818.43452,W,0.067,,061021,,,"A*7B
"
$GNRMC,054208.80,A,3355.40250,N,11818.43450,W,0.122,,061021,,,"A*7E
"
$GNRMC,054208.90,A,3355.40250,N,11818.43450,W,0.146,,061021,,,"A*7D
"
$GNRMC,054209.00,A,3355.40251,N,11818.43449,W,0.203,,061021,,,"A*7E
"
$GNRMC,054209.10,A,3355.40251,N,11818.43448,W,0.197,,061021,,,"A*70
"
$GNRMC,054209.20,A,3355.40251,N,11818.43447,W,0.125,,061021,,,"A*75
"
$GNRMC,054209.30,A,3355.40251,N,11818.43446,W,0.116,,061021,,,"A*75
"
$GNRMC,054209.40,A,3355.40251,N,11818.43444,W,0.075,,061021,,,"A*74
"
$GNRMC,054209.50,A,3355.40251,N,11818.43442,W,0.064,,061021,,,"A*73
"
$GNRMC,054209.60,A,3355.40251,N,11818.43441,W,0.111,,061021,,,"A*70
"
$GNRMC,054209.70,A,3355.40250,N,11818.43441,W,0.027,,061021,,,"A*74
"
$GNRMC,054209.80,A,3355.40251,N,11818.43437,W,0.230,,061021,,,"A*7F
"
$GNRMC,054209.90,A,3355.40251,N,11818.43440,W,0.036,,061021,,,"A*7A
"
$GNRMC,054210.00,A,3355.40250,N,11818.43440,W,0.058,,061021,,,"A*72
"
$GNRMC,054210.10,A,3355.40250,N,11818.43442,W,0.126,,061021,,,"A*79
"
$GNRMC,054210.20,A,3355.40249,N,11818.43443,W,0.119,,061021,,,"A*7F
"
$GNRMC,054210.30,A,3355.40248,N,11818.43444,W,0.139,,061021,,,"A*7A
"
$GNRMC,054210.40,A,3355.40248,N,11818.43446,W,0.213,,061021,,,"A*74
"
$GNRMC,054210.50,A,3355.40248,N,11818.43445,W,0.061,,061021,,,"A*71
"
$GNRMC,054210.60,A,3355.40248,N,11818.43443,W,0.123,,061021,,,"A*73
"
$GNRMC,054210.70,A,3355.40249,N,11818.43441,W,0.140,,061021,,,"A*74
"
$GNRMC,054210.80,A,3355.40249,N,11818.43443,W,0.177,,061021,,,"A*7D
"
$GNRMC,054210.90,A,3355.40249,N,11818.43440,W,0.108,,061021,,,"A*77
"
$GNRMC,054211.00,A,3355.40251,N,11818.43439,W,0.255,,061021,,,"A*73
"
$GNRMC,054211.10,A,3355.40252,N,11818.43440,W,0.276,,061021,,,"A*7E
"
$GNRMC,054211.20,A,3355.40251,N,11818.43441,W,0.167,,061021,,,"A*7C
"
$GNRMC,054211.30,A,3355.40251,N,11818.43439,W,0.155,,061021,,,"A*73
"
$GNRMC,054211.40,A,3355.40252,N,11818.43435,W,0.012,,061021,,,"A*79
"
$GNRMC,054211.50,A,3355.40253,N,11818.43432,W,0.149,,061021,,,"A*71
"
$GNRMC,054211.60,A,3355.40253,N,11818.43432,W,0.116,,061021,,,"A*78
"
$GNRMC,054211.70,A,3355.40253,N,11818.43434,W,0.079,,061021,,,"A*77
"
$GNRMC,054211.80,A,3355.40253,N,11818.43435,W,0.107,,061021,,,"A*71
"
$GNRMC,054211.90,A,3355.40252,N,11818.43435,W,0.036,,061021,,,"A*72
"
$GNRMC,054212.00,A,3355.40252,N,11818.43435,W,0.028,,061021,,,"A*77
"
$GNRMC,054212.10,A,3355.40252,N,11818.43436,W,0.113,,061021,,,"A*7C
"
$GNRMC,054212.20,A,3355.40253,N,11818.43434,W,0.081,,061021,,,"A*76
"
$GNRMC,054212.30,A,3355.40254,N,11818.43435,W,0.185,,061021,,,"A*74
"
$GNRMC,054212.40,A,3355.40254,N,11818.43435,W,0.122,,061021,,,"A*7E
"
$GNRMC,054212.50,A,3355.40254,N,11818.43436,W,0.062,,061021,,,"A*79
"
$GNRMC,054212.60,A,3355.40254,N,11818.43437,W,0.130,,061021,,,"A*7D
"
$GNRMC,054212.70,A,3355.40254,N,11818.43433,W,0.087,,061021,,,"A*75
"
$GNRMC,054212.80,A,3355.40256,N,11818.43434,W,0.180,,061021,,,"A*79
"
$GNRMC,054212.90,A,3355.40256,N,11818.43432,W,0.128,,061021,,,"A*7C
"
$GNRMC,054213.00,A,3355.40256,N,11818.43431,W,0.060,,061021,,,"A*7A
"
$GNRMC,054213.10,A,3355.40255,N,11818.43435,W,0.284,,061021,,,"A*74
"
$GNRMC,054213.20,A,3355.40254,N,11818.43433,W,0.199,,061021,,,"A*7F
"
$GNRMC,054213.30,A,3355.40255,N,11818.43429,W,0.098,,061021,,,"A*74
"
$GNRMC,054213.40,A,3355.40255,N,11818.43427,W,0.041,,061021,,,"A*79
"
$GNRMC,054213.50,A,3355.40256,N,11818.43425,W,0.188,,061021,,,"A*7D
"
$GNRMC,054213.60,A,3355.40256,N,11818.43423,W,0.156,,061021,,,"A*7B
"
$GNRMC,054213.70,A,3355.40256,N,11818.43424,W,0.099,,061021,,,"A*7F
"
$GNRMC,054213.80,A,3355.40257,N,11818.43423,W,0.161,,061021,,,"A*70
"
$GNRMC,054213.90,A,3355.40256,N,11818.43424,W,0.021,,061021,,,"A*72
"
$GNRMC,054214.00,A,3355.40256,N,11818.43423,W,0.049,,061021,,,"A*75
"
$GNRMC,054214.10,A,3355.40256,N,11818.43423,W,0.048,,061021,,,"A*75
"
$GNRMC,054214.20,A,3355.40257,N,11818.43424,W,0.096,,061021,,,"A*73
"
$GNRMC,054214.30,A,3355.40256,N,11818.43427,W,0.166,,061021,,,"A*7E
"
$GNRMC,054214.40,A,3355.40256,N,11818.43426,W,0.085,,061021,,,"A*74
"
$GNRMC,054214.50,A,3355.40256,N,11818.43426,W,0.013,,061021,,,"A*7A
"
$GNRMC,054214.60,A,3355.40257,N,11818.43424,W,0.129,,061021,,,"A*72
"
$GNRMC,054214.70,A,3355.40258,N,11818.43422,W,0.188,,061021,,,"A*71
"
$GNRMC,054214.80,A,3355.40258,N,11818.43424,W,0.152,,061021,,,"A*7F
"
$GNRMC,054214.90,A,3355.40258,N,11818.43425,W,0.087,,061021,,,"A*76
"
$GNRMC,054215.00,A,3355.40257,N,11818.43424,W,0.129,,061021,,,"A*75
"
$GNRMC,054215.10,A,3355.40256,N,11818.43423,W,0.146,,061021,,,"A*7B
"
$GNRMC,054215.20,A,3355.40258,N,11818.43422,W,0.048,,061021,,,"A*78
"
$GNRMC,054215.30,A,3355.40257,N,11818.43421,W,0.049,,061021,,,"A*74
"
$GNRMC,054215.40,A,3355.40257,N,11818.43421,W,0.050,,061021,,,"A*7B
"
$GNRMC,054215.50,A,3355.40256,N,11818.43421,W,0.104,,061021,,,"A*7B
"
$GNRMC,054215.60,A,3355.40256,N,11818.43422,W,0.121,,061021,,,"A*7C
"
$GNRMC,054215.70,A,3355.40257,N,11818.43422,W,0.195,,061021,,,"A*73
"
$GNRMC,054215.80,A,3355.40257,N,11818.43424,W,0.247,,061021,,,"A*76
"
$GNRMC,054215.90,A,3355.40257,N,11818.43425,W,0.280,,061021,,,"A*7D
"
$GNRMC,054216.00,A,3355.40257,N,11818.43425,W,0.226,,061021,,,"A*7B
"
$GNRMC,054216.10,A,3355.40255,N,11818.43426,W,0.311,,061021,,,"A*7E
"
$GNRMC,054216.20,A,3355.40255,N,11818.43429,W,0.324,,061021,,,"A*74
"
$GNRMC,054216.30,A,3355.40254,N,11818.43429,W,0.307,,061021,,,"A*75
"
$GNRMC,054216.40,A,3355.40254,N,11818.43428,W,0.163,,061021,,,"A*73
"
$GNRMC,054216.50,A,3355.40253,N,11818.43429,W,0.110,,061021,,,"A*70
"
$GNRMC,054216.60,A,3355.40253,N,11818.43429,W,0.070,,061021,,,"A*74
"
$GNRMC,054216.70,A,3355.40253,N,11818.43428,W,0.087,,061021,,,"A*7C
"
$GNRMC,054216.80,A,3355.40253,N,11818.43427,W,0.136,,061021,,,"A*77
"
$GNRMC,054216.90,A,3355.40254,N,11818.43427,W,0.230,,061021,,,"A*74
"
$GNRMC,054217.00,A,3355.40253,N,11818.43427,W,0.040,,061021,,,"A*7E
"
$GNRMC,054217.10,A,3355.40253,N,11818.43428,W,0.079,,061021,,,"A*7A
"
$GNRMC,054217.20,A,3355.40252,N,11818.43429,W,0.137,,061021,,,"A*72
"
$GNRMC,054217.30,A,3355.40251,N,11818.43430,W,0.274,,061021,,,"A*7C
"
$GNRMC,054217.40,A,3355.40252,N,11818.43428,W,0.128,,061021,,,"A*7B
"
$GNRMC,054217.50,A,3355.40251,N,11818.43430,W,0.193,,061021,,,"A*70
"
$GNRMC,054217.60,A,3355.40251,N,11818.43431,W,0.281,,061021,,,"A*72
"
$GNRMC,054217.70,A,3355.40250,N,11818.43431,W,0.272,,061021,,,"A*7E
"
$GNRMC,054217.80,A,3355.40249,N,11818.43431,W,0.291,,061021,,,"A*74
"
$GNRMC,054217.90,A,3355.40248,N,11818.43431,W,0.268,,061021,,,"A*72
"
$GNRMC,054218.00,A,3355.40248,N,11818.43430,W,0.185,,061021,,,"A*75
"
$GNRMC,054218.10,A,3355.40247,N,11818.43431,W,0.249,,061021,,,"A*79
"
$GNRMC,054218.20,A,3355.40245,N,11818.43435,W,0.407,,061021,,,"A*70
"
$GNRMC,054218.30,A,3355.40245,N,11818.43433,W,0.225,,061021,,,"A*71
"
$GNRMC,054218.40,A,3355.40245,N,11818.43434,W,0.260,,061021,,,"A*70
"
$GNRMC,054218.50,A,3355.40244,N,11818.43434,W,0.314,,061021,,,"A*72
"
$GNRMC,054218.60,A,3355.40243,N,11818.43434,W,0.215,,061021,,,"A*76
"
$GNRMC,054218.70,A,3355.40243,N,11818.43433,W,0.148,,061021,,,"A*7B
"
$GNRMC,054218.80,A,3355.40242,N,11818.43436,W,0.297,,061021,,,"A*71
"
$GNRMC,054218.90,A,3355.40243,N,11818.43432,W,0.048,,061021,,,"A*75
"
$GNRMC,054219.00,A,3355.40243,N,11818.43431,W,0.144,,061021,,,"A*73
"
$GNRMC,054219.10,A,3355.40243,N,11818.43431,W,0.060,,061021,,,"A*75
"
$GNRMC,054219.20,A,3355.40242,N,11818.43431,W,0.106,,061021,,,"A*76
"
$GNRMC,054219.30,A,3355.40241,N,11818.43433,W,0.219,,061021,,,"A*7B
"
$GNRMC,054219.40,A,3355.40241,N,11818.43433,W,0.177,,061021,,,"A*77
"
$GNRMC,054219.50,A,3355.40240,N,11818.43436,W,0.324,,061021,,,"A*76
"
$GNRMC,054219.60,A,3355.40240,N,11818.43436,W,0.206,,061021,,,"A*74
"
$GNRMC,054219.70,A,3355.40239,N,11818.43439,W,0.308,,061021,,,"A*7B
"
$GNRMC,054219.80,A,3355.40238,N,11818.43441,W,0.432,,061021,,,"A*74
"
$GNRMC,054219.90,A,3355.40238,N,11818.43440,W,0.280,,061021,,,"A*7B
"
$GNRMC,054220.00,A,3355.40239,N,11818.43440,W,0.209,,061021,,,"A*78
"
$GNRMC,054220.10,A,3355.40239,N,11818.43439,W,0.163,,061021,,,"A*78
"
$GNRMC,054220.20,A,3355.40239,N,11818.43438,W,0.098,,061021,,,"A*7F
"
$GNRMC,054220.30,A,3355.40239,N,11818.43439,W,0.080,,061021,,,"A*76
"
$GNRMC,054220.40,A,3355.40238,N,11818.43442,W,0.188,,061021,,,"A*75
"
$GNRMC,054220.50,A,3355.40239,N,11818.43442,W,0.141,,061021,,,"A*70
"
$GNRMC,054220.60,A,3355.40238,N,11818.43441,W,0.085,,061021,,,"A*78
"
$GNRMC,054220.70,A,3355.40238,N,11818.43442,W,0.097,,061021,,,"A*79
"
$GNRMC,054220.80,A,3355.40238,N,11818.43440,W,0.089,,061021,,,"A*7B
"
$GNRMC,054220.90,A,3355.40238,N,11818.43443,W,0.104,,061021,,,"A*7D
"
$GNRMC,054221.00,A,3355.40237,N,11818.43441,W,0.236,,061021,,,"A*7A
"
$GNRMC,054221.10,A,3355.40239,N,11818.43438,W,0.219,,061021,,,"A*76
"
$GNRMC,054221.20,A,3355.40239,N,11818.43437,W,0.229,,061021,,,"A*79
"
$GNRMC,054221.30,A,3355.40238,N,11818.43438,W,0.206,,061021,,,"A*7B
"
$GNRMC,054221.40,A,3355.40239,N,11818.43438,W,0.060,,061021,,,"A*7F
"
$GNRMC,054221.50,A,3355.40240,N,11818.43437,W,0.195,,061021,,,"A*74
"
$GNRMC,054221.60,A,3355.40239,N,11818.43437,W,0.119,,061021,,,"A*7D
"
$GNRMC,054221.70,A,3355.40238,N,11818.43438,W,0.017,,061021,,,"A*7D
"
$GNRMC,054221.80,A,3355.40237,N,11818.43438,W,0.099,,061021,,,"A*7B
"
$GNRMC,054221.90,A,3355.40237,N,11818.43439,W,0.040,,061021,,,"A*7F
"
$GNRMC,054222.00,A,3355.40236,N,11818.43439,W,0.095,,061021,,,"A*7C
"
$GNRMC,054222.10,A,3355.40235,N,11818.43440,W,0.110,,061021,,,"A*7C
"
$GNRMC,054222.20,A,3355.40234,N,11818.43442,W,0.233,,061021,,,"A*7E
"
$GNRMC,054222.30,A,3355.40234,N,11818.43443,W,0.235,,061021,,,"A*78
"
$GNRMC,054222.40,A,3355.40234,N,11818.43444,W,0.187,,061021,,,"A*72
"
$GNRMC,054222.50,A,3355.40233,N,11818.43446,W,0.213,,061021,,,"A*78
"
$GNRMC,054222.60,A,3355.40234,N,11818.43446,W,0.094,,061021,,,"A*71
"
$GNRMC,054222.70,A,3355.40234,N,11818.43446,W,0.011,,061021,,,"A*7D
"
$GNRMC,054222.80,A,3355.40233,N,11818.43444,W,0.060,,061021,,,"A*71
"
$GNRMC,054222.90,A,3355.40233,N,11818.43444,W,0.066,,061021,,,"A*76
"
$GNRMC,054223.00,A,3355.40233,N,11818.43443,W,0.177,,061021,,,"A*78
"
$GNRMC,054223.10,A,3355.40233,N,11818.43439,W,0.516,,061021,,,"A*77
"
$GNRMC,054223.20,A,3355.40234,N,11818.43438,W,0.634,,061021,,,"A*71
"
$GNRMC,054223.30,A,3355.40235,N,11818.43440,W,0.415,,061021,,,"A*7F
"
$GNRMC,054223.40,A,3355.40236,N,11818.43436,W,0.515,,061021,,,"A*7B
"
$GNRMC,054223.50,A,3355.40235,N,11818.43437,W,0.436,,061021,,,"A*78
"
$GNRMC,054223.60,A,3355.40235,N,11818.43437,W,0.300,,061021,,,"A*79
"
$GNRMC,054223.70,A,3355.40236,N,11818.43437,W,0.361,,061021,,,"A*7C
"
$GNRMC,054223.80,A,3355.40236,N,11818.43435,W,0.571,,061021,,,"A*76
"
$GNRMC,054223.90,A,3355.40237,N,11818.43436,W,0.440,,061021,,,"A*76
"
$GNRMC,054224.00,A,3355.40238,N,11818.43431,W,0.548,,061021,,,"A*79
"
$GNRMC,054224.10,A,3355.40239,N,11818.43432,W,0.429,,061021,,,"A*7C
"
$GNRMC,054224.20,A,3355.40240,N,11818.43431,W,0.482,,061021,,,"A*73
"
$GNRMC,054224.30,A,3355.40240,N,11818.43430,W,0.437,,061021,,,"A*7D
"
$GNRMC,054224.40,A,3355.40240,N,11818.43431,W,0.270,,061021,,,"A*7E
"
$GNRMC,054224.50,A,3355.40239,N,11818.43433,W,0.111,,061021,,,"A*77
"
$GNRMC,054224.60,A,3355.40241,N,11818.43429,W,0.242,,061021,,,"A*75
"
$GNRMC,054224.70,A,3355.40241,N,11818.43431,W,0.224,,061021,,,"A*7D
"
$GNRMC,054224.80,A,3355.40241,N,11818.43429,W,0.319,,061021,,,"A*74
"
$GNRMC,054224.90,A,3355.40241,N,11818.43426,W,0.401,,061021,,,"A*74
"
$GNRMC,054225.00,A,3355.40242,N,11818.43424,W,0.382,,061021,,,"A*71
"
$GNRMC,054225.10,A,3355.40242,N,11818.43427,W,0.292,,061021,,,"A*73
"
$GNRMC,054225.20,A,3355.40244,N,11818.43426,W,0.465,,061021,,,"A*79
"
$GNRMC,054225.30,A,3355.40242,N,11818.43429,W,0.120,,061021,,,"A*75
"
$GNRMC,054225.40,A,3355.40242,N,11818.43431,W,0.049,,061021,,,"A*75
"
$GNRMC,054225.50,A,3355.40243,N,11818.43429,W,0.246,,061021,,,"A*71
"
$GNRMC,054225.60,A,3355.40240,N,11818.43431,W,0.316,,061021,,,"A*7C
"
$GNRMC,054225.70,A,3355.40242,N,11818.43428,W,0.167,,061021,,,"A*73
"
$GNRMC,054225.80,A,3355.40243,N,11818.43428,W,0.143,,061021,,,"A*7B
"
$GNRMC,054225.90,A,3355.40244,N,11818.43425,W,0.230,,061021,,,"A*77
"
$GNRMC,054226.00,A,3355.40244,N,11818.43424,W,0.091,,061021,,,"A*75
"
$GNRMC,054226.10,A,3355.40243,N,11818.43426,W,0.064,,061021,,,"A*7B
"
$GNRMC,054226.20,A,3355.40242,N,11818.43428,W,0.100,,061021,,,"A*74
"
$GNRMC,054226.30,A,3355.40242,N,11818.43427,W,0.150,,061021,,,"A*7F
"
$GNRMC,054226.40,A,3355.40241,N,11818.43429,W,0.231,,061021,,,"A*71
"
$GNRMC,054226.50,A,3355.40241,N,11818.43428,W,0.136,,061021,,,"A*75
"
$GNRMC,054226.60,A,3355.40240,N,11818.43428,W,0.222,,061021,,,"A*71
"
$GNRMC,054226.70,A,3355.40240,N,11818.43428,W,0.197,,061021,,,"A*7D
"
$GNRMC,054226.80,A,3355.40240,N,11818.43432,W,0.075,,061021,,,"A*74
"
$GNRMC,054226.90,A,3355.40240,N,11818.43432,W,0.085,,061021,,,"A*7A
"
$GNRMC,054227.00,A,3355.40240,N,11818.43431,W,0.093,,061021,,,"A*76
"
$GNRMC,054227.10,A,3355.40240,N,11818.43430,W,0.128,,061021,,,"A*77
"
$GNRMC,054227.20,A,3355.40241,N,11818.43428,W,0.263,,061021,,,"A*70
"
$GNRMC,054227.30,A,3355.40239,N,11818.43431,W,0.050,,061021,,,"A*74
"
$GNRMC,054227.40,A,3355.40237,N,11818.43434,W,0.264,,061021,,,"A*7D
"
$GNRMC,054227.50,A,3355.40237,N,11818.43435,W,0.229,,061021,,,"A*74
"
$GNRMC,054227.60,A,3355.40236,N,11818.43435,W,0.237,,061021,,,"A*79
"
$GNRMC,054227.70,A,3355.40237,N,11818.43433,W,0.025,,061021,,,"A*7E
"
$GNRMC,054227.80,A,3355.40237,N,11818.43434,W,0.191,,061021,,,"A*78
"
$GNRMC,054227.90,A,3355.40237,N,11818.43436,W,0.047,,061021,,,"A*71
"
$GNRMC,054228.00,A,3355.40236,N,11818.43437,W,0.094,,061021,,,"A*79
"
$GNRMC,054228.10,A,3355.40234,N,11818.43442,W,0.316,,061021,,,"A*71
"
$GNRMC,054228.20,A,3355.40234,N,11818.43442,W,0.176,,061021,,,"A*76
"
$GNRMC,054228.30,A,3355.40232,N,11818.43444,W,0.404,,061021,,,"A*77
"
$GNRMC,054228.40,A,3355.40231,N,11818.43444,W,0.475,,061021,,,"A*75
"
$GNRMC,054228.50,A,3355.40231,N,11818.43443,W,0.255,,061021,,,"A*77
"
$GNRMC,054228.60,A,3355.40229,N,11818.43445,W,0.308,,061021,,,"A*72
"
$GNRMC,054228.70,A,3355.40228,N,11818.43445,W,0.314,,061021,,,"A*7F
"
$GNRMC,054228.80,A,3355.40227,N,11818.43446,W,0.213,,061021,,,"A*7A
"
$GNRMC,054228.90,A,3355.40226,N,11818.43448,W,0.240,,061021,,,"A*72
"
$GNRMC,054229.00,A,3355.40227,N,11818.43449,W,0.108,,061021,,,"A*75
"
$GNRMC,054229.10,A,3355.40226,N,11818.43449,W,0.113,,061021,,,"A*7F
"
$GNRMC,054229.20,A,3355.40226,N,11818.43448,W,0.178,,061021,,,"A*70
"
$GNRMC,054229.30,A,3355.40224,N,11818.43451,W,0.198,,061021,,,"A*75
"
$GNRMC,054229.40,A,3355.40223,N,11818.43456,W,0.379,,061021,,,"A*7F
"
$GNRMC,054229.50,A,3355.40222,N,11818.43458,W,0.423,,061021,,,"A*79
"
$GNRMC,054229.60,A,3355.40221,N,11818.43457,W,0.373,,061021,,,"A*74
"
$GNRMC,054229.70,A,3355.40221,N,11818.43457,W,0.208,,061021,,,"A*78
"
$GNRMC,054229.80,A,3355.40219,N,11818.43464,W,0.443,,061021,,,"A*75
"
$GNRMC,054229.90,A,3355.40219,N,11818.43466,W,0.423,,061021,,,"A*70
"
$GNRMC,054230.00,A,3355.40219,N,11818.43463,W,0.226,,061021,,,"A*77
"
$GNRMC,054230.10,A,3355.40219,N,11818.43465,W,0.365,,061021,,,"A*76
"
$GNRMC,054230.20,A,3355.40219,N,11818.43466,W,0.359,,061021,,,"A*79
"
$GNRMC,054230.30,A,3355.40219,N,11818.43470,W,0.380,,061021,,,"A*7B
"
$GNRMC,054230.40,A,3355.40219,N,11818.43472,W,0.349,,061021,,,"A*7B
"
$GNRMC,054230.50,A,3355.40219,N,11818.43472,W,0.226,,061021,,,"A*72
"
$GNRMC,054230.60,A,3355.40222,N,11818.43468,W,0.181,,061021,,,"A*7C
"
$GNRMC,054230.70,A,3355.40223,N,11818.43467,W,0.195,,061021,,,"A*76
"
$GNRMC,054230.80,A,3355.40223,N,11818.43469,W,0.143,,061021,,,"A*7C
"
$GNRMC,054230.90,A,3355.40223,N,11818.43470,W,0.139,,061021,,,"A*78
"
$GNRMC,054231.00,A,3355.40222,N,11818.43472,W,0.052,,061021,,,"A*7F
"
$GNRMC,054231.10,A,3355.40223,N,11818.43474,W,0.113,,061021,,,"A*7D
"
$GNRMC,054231.20,A,3355.40224,N,11818.43473,W,0.272,,061021,,,"A*7A
"
$GNRMC,054231.30,A,3355.40224,N,11818.43474,W,0.204,,061021,,,"A*7D
"
$GNRMC,054231.40,A,3355.40223,N,11818.43478,W,0.200,,061021,,,"A*75
"
$GNRMC,054231.50,A,3355.40222,N,11818.43481,W,0.176,,061021,,,"A*71
"
$GNRMC,054231.60,A,3355.40222,N,11818.43480,W,0.108,,061021,,,"A*7A
"
$GNRMC,054231.70,A,3355.40221,N,11818.43482,W,0.201,,061021,,,"A*70
"
$GNRMC,054231.80,A,3355.40222,N,11818.43482,W,0.135,,061021,,,"A*78
"
$GNRMC,054231.90,A,3355.40221,N,11818.43482,W,0.127,,061021,,,"A*79
"
$GNRMC,054232.00,A,3355.40221,N,11818.43485,W,0.316,,061021,,,"A*74
"
$GNRMC,054232.10,A,3355.40221,N,11818.43491,W,0.650,,061021,,,"A*77
"
$GNRMC,054232.20,A,3355.40222,N,11818.43491,W,0.648,,061021,,,"A*7E
"
$GNRMC,054232.30,A,3355.40224,N,11818.43491,W,0.744,,061021,,,"A*74
"
$GNRMC,054232.40,A,3355.40226,N,11818.43491,W,0.613,,061021,,,"A*72
"
$GNRMC,054232.50,A,3355.40224,N,11818.43493,W,0.332,,061021,,,"A*75
"
$GNRMC,054232.60,A,3355.40223,N,11818.43495,W,0.317,,061021,,,"A*70
"
$GNRMC,054232.70,A,3355.40223,N,11818.43494,W,0.142,,061021,,,"A*72
"
$GNRMC,054232.80,A,3355.40225,N,11818.43493,W,0.030,,061021,,,"A*78
"
$GNRMC,054232.90,A,3355.40225,N,11818.43495,W,0.047,,061021,,,"A*7F
"
$GNRMC,054233.00,A,3355.40223,N,11818.43492,W,0.128,,061021,,,"A*7E
"
$GNRMC,054233.10,A,3355.40224,N,11818.43493,W,0.025,,061021,,,"A*75
"
$GNRMC,054233.20,A,3355.40223,N,11818.43495,W,0.090,,061021,,,"A*79
"
$GNRMC,054233.30,A,3355.40225,N,11818.43493,W,0.161,,061021,,,"A*77
"
$GNRMC,054233.40,A,3355.40226,N,11818.43491,W,0.261,,061021,,,"A*72
"
$GNRMC,054233.50,A,3355.40226,N,11818.43490,W,0.498,,061021,,,"A*72
"
$GNRMC,054233.60,A,3355.40228,N,11818.43485,W,0.558,,061021,,,"A*76
"
$GNRMC,054233.70,A,3355.40228,N,11818.43487,W,0.269,,061021,,,"A*70
"
$GNRMC,054233.80,A,3355.40229,N,11818.43486,W,0.063,,061021,,,"A*77
"
$GNRMC,054233.90,A,3355.40230,N,11818.43487,W,0.167,,061021,,,"A*7A
"
$GNRMC,054234.00,A,3355.40229,N,11818.43487,W,0.057,,061021,,,"A*7E
"
$GNRMC,054234.10,A,3355.40230,N,11818.43485,W,0.108,,061021,,,"A*7E
"
$GNRMC,054234.20,A,3355.40231,N,11818.43487,W,0.101,,061021,,,"A*77
"
$GNRMC,054234.30,A,3355.40231,N,11818.43486,W,0.103,,061021,,,"A*75
"
$GNRMC,054234.40,A,3355.40231,N,11818.43488,W,0.016,,061021,,,"A*79
"
$GNRMC,054234.50,A,3355.40231,N,11818.43487,W,0.079,,061021,,,"A*7E
"
$GNRMC,054234.60,A,3355.40231,N,11818.43488,W,0.044,,061021,,,"A*7C
"
$GNRMC,054234.70,A,3355.40232,N,11818.43488,W,0.156,,061021,,,"A*7C
"
$GNRMC,054234.80,A,3355.40233,N,11818.43486,W,0.140,,061021,,,"A*7B
"
$GNRMC,054234.90,A,3355.40232,N,11818.43486,W,0.146,,061021,,,"A*7D
"
$GNRMC,054235.00,A,3355.40232,N,11818.43484,W,0.149,,061021,,,"A*78
"
$GNRMC,054235.10,A,3355.40233,N,11818.43483,W,0.113,,061021,,,"A*70
"
$GNRMC,054235.20,A,3355.40233,N,11818.43482,W,0.198,,061021,,,"A*71
"
$GNRMC,054235.30,A,3355.40234,N,11818.43481,W,0.193,,061021,,,"A*7F
"
$GNRMC,054235.40,A,3355.40233,N,11818.43483,W,0.018,,061021,,,"A*7F
"
$GNRMC,054235.50,A,3355.40233,N,11818.43483,W,0.103,,061021,,,"A*75
"
$GNRMC,054235.60,A,3355.40232,N,11818.43484,W,0.128,,061021,,,"A*79
"
$GNRMC,054235.70,A,3355.40233,N,11818.43485,W,0.032,,061021,,,"A*72
"
$GNRMC,054235.80,A,3355.40231,N,11818.43489,W,0.188,,061021,,,"A*73
"
$GNRMC,054235.90,A,3355.40231,N,11818.43491,W,0.142,,061021,,,"A*7D
"
$GNRMC,054236.00,A,3355.40232,N,11818.43492,W,0.156,,061021,,,"A*72
"
$GNRMC,054236.10,A,3355.40232,N,11818.43496,W,0.370,,061021,,,"A*71
"
$GNRMC,054236.20,A,3355.40234,N,11818.43491,W,0.140,,061021,,,"A*72
"
$GNRMC,054236.30,A,3355.40235,N,11818.43491,W,0.212,,061021,,,"A*76
"
$GNRMC,054236.40,A,3355.40235,N,11818.43493,W,0.177,,061021,,,"A*73
"
$GNRMC,054236.50,A,3355.40235,N,11818.43493,W,0.175,,061021,,,"A*70
"
$GNRMC,054236.60,A,3355.40236,N,11818.43493,W,0.104,,061021,,,"A*76
"
$GNRMC,054236.70,A,3355.40237,N,11818.43491,W,0.145,,061021,,,"A*71
"
$GNRMC,054236.80,A,3355.40239,N,11818.43489,W,0.329,,061021,,,"A*71
"
$GNRMC,054236.90,A,3355.40241,N,11818.43488,W,0.410,,061021,,,"A*73
"
$GNRMC,054237.00,A,3355.40243,N,11818.43488,W,0.492,,061021,,,"A*73
"
$GNRMC,054237.10,A,3355.40246,N,11818.43487,W,0.562,,061021,,,"A*76
"
$GNRMC,054237.20,A,3355.40248,N,11818.43486,W,0.627,,061021,,,"A*78
"
$GNRMC,054237.30,A,3355.40250,N,11818.43483,W,0.678,,061021,,,"A*7F
"
$GNRMC,054237.40,A,3355.40252,N,11818.43483,W,0.698,,061021,,,"A*74
"
$GNRMC,054237.50,A,3355.40253,N,11818.43485,W,0.650,,061021,,,"A*76
"
$GNRMC,054237.60,A,3355.40259,N,11818.43484,W,0.883,,061021,,,"A*7E
"
$GNRMC,054237.70,A,3355.40259,N,11818.43485,W,0.743,,061021,,,"A*7D
"
$GNRMC,054237.80,A,3355.40257,N,11818.43488,W,0.528,,061021,,,"A*7E
"
$GNRMC,054237.90,A,3355.40256,N,11818.43488,W,0.397,,061021,,,"A*7C
"
$GNRMC,054238.00,A,3355.40256,N,11818.43488,W,0.279,,061021,,,"A*7B
"
$GNRMC,054238.10,A,3355.40255,N,11818.43488,W,0.157,,061021,,,"A*76
"
$GNRMC,054238.20,A,3355.40255,N,11818.43489,W,0.111,,061021,,,"A*76
"
$GNRMC,054238.30,A,3355.40256,N,11818.43488,W,0.192,,061021,,,"A*7E
"
$GNRMC,054238.40,A,3355.40256,N,11818.43490,W,0.101,,061021,,,"A*7A
"
$GNRMC,054238.50,A,3355.40256,N,11818.43488,W,0.115,,061021,,,"A*77
"
$GNRMC,054238.60,A,3355.40256,N,11818.43489,W,0.084,,061021,,,"A*7C
"
$GNRMC,054238.70,A,3355.40256,N,11818.43487,W,0.202,,061021,,,"A*7F
"
$GNRMC,054238.80,A,3355.40257,N,11818.43489,W,0.176,,061021,,,"A*7F
"
$GNRMC,054238.90,A,3355.40258,N,11818.43490,W,0.198,,061021,,,"A*79
"
$GNRMC,054239.00,A,3355.40258,N,11818.43487,W,0.319,,061021,,,"A*7C
"
$GNRMC,054239.10,A,3355.40258,N,11818.43485,W,0.408,,061021,,,"A*78
"
$GNRMC,054239.20,A,3355.40259,N,11818.43483,W,0.457,,061021,,,"A*76
"
$GNRMC,054239.30,A,3355.40258,N,11818.43486,W,0.249,,061021,,,"A*7A
"
$GNRMC,054239.40,A,3355.40260,N,11818.43484,W,0.499,,061021,,,"A*7F
"
$GNRMC,054239.50,A,3355.40258,N,11818.43488,W,0.336,,061021,,,"A*7B
"
$GNRMC,054239.60,A,3355.40259,N,11818.43487,W,0.362,,061021,,,"A*77
"
$GNRMC,054239.70,A,3355.40260,N,11818.43488,W,0.335,,061021,,,"A*71
"
$GNRMC,054239.80,A,3355.40261,N,11818.43485,W,0.437,,061021,,,"A*77
"
$GNRMC,054239.90,A,3355.40261,N,11818.43486,W,0.328,,061021,,,"A*7C
"
$GNRMC,054240.00,A,3355.40262,N,11818.43487,W,0.314,,061021,,,"A*76
"
$GNRMC,054240.10,A,3355.40263,N,11818.43488,W,0.316,,061021,,,"A*7B
"
$GNRMC,054240.20,A,3355.40263,N,11818.43487,W,0.292,,061021,,,"A*7A
"
$GNRMC,054240.30,A,3355.40262,N,11818.43489,W,0.176,,061021,,,"A*7D
"
$GNRMC,054240.40,A,3355.40261,N,11818.43492,W,0.137,,061021,,,"A*76
"
$GNRMC,054240.50,A,3355.40261,N,11818.43489,W,0.202,,061021,,,"A*78
"
$GNRMC,054240.60,A,3355.40262,N,11818.43489,W,0.110,,061021,,,"A*78
"
$GNRMC,054240.70,A,3355.40262,N,11818.43488,W,0.071,,061021,,,"A*7E
"
$GNRMC,054240.80,A,3355.40261,N,11818.43487,W,0.327,,061021,,,"A*7D
"
$GNRMC,054240.90,A,3355.40262,N,11818.43490,W,0.107,,061021,,,"A*79
"
$GNRMC,054241.00,A,3355.40262,N,11818.43490,W,0.098,,061021,,,"A*76
"
$GNRMC,054241.10,A,3355.40263,N,11818.43490,W,0.099,,061021,,,"A*77
"
$GNRMC,054241.20,A,3355.40262,N,11818.43493,W,0.142,,061021,,,"A*71
"
$GNRMC,054241.30,A,3355.40261,N,11818.43496,W,0.184,,061021,,,"A*7C
"
$GNRMC,054241.40,A,3355.40262,N,11818.43495,W,0.118,,061021,,,"A*7E
"
$GNRMC,054241.50,A,3355.40262,N,11818.43496,W,0.146,,061021,,,"A*77
"
$GNRMC,054241.60,A,3355.40263,N,11818.43496,W,0.164,,061021,,,"A*75
"
$GNRMC,054241.70,A,3355.40263,N,11818.43495,W,0.056,,061021,,,"A*77
"
$GNRMC,054241.80,A,3355.40263,N,11818.43495,W,0.019,,061021,,,"A*73
"
$GNRMC,054241.90,A,3355.40263,N,11818.43495,W,0.021,,061021,,,"A*79
"
$GNRMC,054242.00,A,3355.40262,N,11818.43497,W,0.103,,061021,,,"A*71
"
$GNRMC,054242.10,A,3355.40264,N,11818.43496,W,0.111,,061021,,,"A*74
"
$GNRMC,054242.20,A,3355.40264,N,11818.43497,W,0.094,,061021,,,"A*7A
"
$GNRMC,054242.30,A,3355.40263,N,11818.43498,W,0.080,,061021,,,"A*76
"
$GNRMC,054242.40,A,3355.40264,N,11818.43499,W,0.117,,061021,,,"A*78
"
$GNRMC,054242.50,A,3355.40263,N,11818.43502,W,0.095,,061021,,,"A*76
"
$GNRMC,054242.60,A,3355.40263,N,11818.43504,W,0.091,,061021,,,"A*77
"
$GNRMC,054242.70,A,3355.40263,N,11818.43506,W,0.170,,061021,,,"A*7A
"
$GNRMC,054242.80,A,3355.40264,N,11818.43504,W,0.042,,061021,,,"A*70
"
$GNRMC,054242.90,A,3355.40264,N,11818.43503,W,0.051,,061021,,,"A*74
"
$GNRMC,054243.00,A,3355.40264,N,11818.43502,W,0.088,,061021,,,"A*79
"
$GNRMC,054243.10,A,3355.40265,N,11818.43502,W,0.115,,061021,,,"A*7C
"
$GNRMC,054243.20,A,3355.40265,N,11818.43502,W,0.160,,061021,,,"A*7D
"
$GNRMC,054243.30,A,3355.40265,N,11818.43505,W,0.061,,061021,,,"A*7B
"
$GNRMC,054243.40,A,3355.40265,N,11818.43505,W,0.075,,061021,,,"A*79
"
$GNRMC,054243.50,A,3355.40265,N,11818.43507,W,0.070,,061021,,,"A*7F
"
$GNRMC,054243.60,A,3355.40264,N,11818.43510,W,0.299,,061021,,,"A*7E
"
$GNRMC,054243.70,A,3355.40263,N,11818.43511,W,0.236,,061021,,,"A*7C
"
$GNRMC,054243.80,A,3355.40262,N,11818.43514,W,0.311,,061021,,,"A*73
"
$GNRMC,054243.90,A,3355.40263,N,11818.43514,W,0.213,,061021,,,"A*70
"
$GNRMC,054244.00,A,3355.40262,N,11818.43517,W,0.287,,061021,,,"A*71
"
$GNRMC,054244.10,A,3355.40263,N,11818.43516,W,0.254,,061021,,,"A*7E
"
$GNRMC,054244.20,A,3355.40263,N,11818.43515,W,0.186,,061021,,,"A*72
"
$GNRMC,054244.30,A,3355.40264,N,11818.43517,W,0.108,,061021,,,"A*70
"
$GNRMC,054244.40,A,3355.40263,N,11818.43521,W,0.148,,061021,,,"A*71
"
$GNRMC,054244.50,A,3355.40264,N,11818.43520,W,0.123,,061021,,,"A*7B
"
$GNRMC,054244.60,A,3355.40264,N,11818.43517,W,0.091,,061021,,,"A*74
"
$GNRMC,054244.70,A,3355.40264,N,11818.43517,W,0.126,,061021,,,"A*78
"
$GNRMC,054244.80,A,3355.40264,N,11818.43518,W,0.086,,061021,,,"A*73
"
$GNRMC,054244.90,A,3355.40265,N,11818.43515,W,0.049,,061021,,,"A*7D
"
$GNRMC,054245.00,A,3355.40266,N,11818.43514,W,0.168,,061021,,,"A*75
"
$GNRMC,054245.10,A,3355.40267,N,11818.43513,W,0.148,,061021,,,"A*70
"
$GNRMC,054245.20,A,3355.40267,N,11818.43513,W,0.122,,061021,,,"A*7F
"
$GNRMC,054245.30,A,3355.40268,N,11818.43513,W,0.102,,061021,,,"A*73
"
$GNRMC,054245.40,A,3355.40268,N,11818.43512,W,0.139,,061021,,,"A*7D
"
$GNRMC,054245.50,A,3355.40269,N,11818.43510,W,0.107,,061021,,,"A*72
"
$GNRMC,054245.60,A,3355.40269,N,11818.43511,W,0.109,,061021,,,"A*7E
"
$GNRMC,054245.70,A,3355.40269,N,11818.43513,W,0.123,,061021,,,"A*75
"
$GNRMC,054245.80,A,3355.40270,N,11818.43511,W,0.068,,061021,,,"A*7E
"
$GNRMC,054245.90,A,3355.40269,N,11818.43511,W,0.084,,061021,,,"A*75
"
$GNRMC,054246.00,A,3355.40270,N,11818.43511,W,0.132,,061021,,,"A*7B
"
$GNRMC,054246.10,A,3355.40270,N,11818.43509,W,0.217,,061021,,,"A*77
"
$GNRMC,054246.20,A,3355.40271,N,11818.43510,W,0.204,,061021,,,"A*7F
"
$GNRMC,054246.30,A,3355.40270,N,11818.43511,W,0.213,,061021,,,"A*78
"
$GNRMC,054246.40,A,3355.40270,N,11818.43510,W,0.167,,061021,,,"A*7E
"
$GNRMC,054246.50,A,3355.40271,N,11818.43508,W,0.116,,061021,,,"A*71
"
$GNRMC,054246.60,A,3355.40272,N,11818.43505,W,0.135,,061021,,,"A*7D
"
$GNRMC,054246.70,A,3355.40272,N,11818.43508,W,0.134,,061021,,,"A*70
"
$GNRMC,054246.80,A,3355.40272,N,11818.43508,W,0.035,,061021,,,"A*7F
"
$GNRMC,054246.90,A,3355.40273,N,11818.43508,W,0.065,,061021,,,"A*7A
"
$GNRMC,054247.00,A,3355.40273,N,11818.43508,W,0.075,,061021,,,"A*73
"
$GNRMC,054247.10,A,3355.40273,N,11818.43507,W,0.102,,061021,,,"A*7C
"
$GNRMC,054247.20,A,3355.40271,N,11818.43511,W,0.207,,061021,,,"A*7C
"
$GNRMC,054247.30,A,3355.40272,N,11818.43511,W,0.138,,061021,,,"A*71
"
$GNRMC,054247.40,A,3355.40272,N,11818.43509,W,0.083,,061021,,,"A*7E
"
$GNRMC,054247.50,A,3355.40273,N,11818.43510,W,0.036,,061021,,,"A*78
"
$GNRMC,054247.60,A,3355.40273,N,11818.43511,W,0.077,,061021,,,"A*7F
"
$GNRMC,054247.70,A,3355.40273,N,11818.43510,W,0.043,,061021,,,"A*78
"
$GNRMC,054247.80,A,3355.40274,N,11818.43509,W,0.069,,061021,,,"A*70
"
$GNRMC,054247.90,A,3355.40274,N,11818.43510,W,0.243,,061021,,,"A*73
"
$GNRMC,054248.00,A,3355.40275,N,11818.43510,W,0.194,,061021,,,"A*7D
"
$GNRMC,054248.10,A,3355.40276,N,11818.43511,W,0.230,,061021,,,"A*73
"
$GNRMC,054248.20,A,3355.40276,N,11818.43512,W,0.203,,061021,,,"A*73
"
$GNRMC,054248.30,A,3355.40277,N,11818.43512,W,0.159,,061021,,,"A*7F
"
$GNRMC,054248.40,A,3355.40277,N,11818.43511,W,0.131,,061021,,,"A*75
"
$GNRMC,054248.50,A,3355.40277,N,11818.43512,W,0.101,,061021,,,"A*74
"
$GNRMC,054248.60,A,3355.40277,N,11818.43515,W,0.155,,061021,,,"A*71
"
$GNRMC,054248.70,A,3355.40278,N,11818.43514,W,0.125,,061021,,,"A*79
"
$GNRMC,054248.80,A,3355.40278,N,11818.43514,W,0.194,,061021,,,"A*7C
"
$GNRMC,054248.90,A,3355.40278,N,11818.43509,W,0.108,,061021,,,"A*74
"
$GNRMC,054249.00,A,3355.40279,N,11818.43509,W,0.078,,061021,,,"A*7B
"
$GNRMC,054249.10,A,3355.40280,N,11818.43508,W,0.100,,061021,,,"A*73
"
$GNRMC,054249.20,A,3355.40281,N,11818.43506,W,0.159,,061021,,,"A*73
"
$GNRMC,054249.30,A,3355.40281,N,11818.43505,W,0.190,,061021,,,"A*74
"
$GNRMC,054249.40,A,3355.40283,N,11818.43505,W,0.221,,061021,,,"A*78
"
$GNRMC,054249.50,A,3355.40283,N,11818.43505,W,0.165,,061021,,,"A*7A
"
$GNRMC,054249.60,A,3355.40284,N,11818.43506,W,0.120,,061021,,,"A*7C
"
$GNRMC,054249.70,A,3355.40284,N,11818.43505,W,0.081,,061021,,,"A*74
"
$GNRMC,054249.80,A,3355.40284,N,11818.43505,W,0.088,,061021,,,"A*72
"
$GNRMC,054249.90,A,3355.40286,N,11818.43507,W,0.164,,061021,,,"A*70
"
$GNRMC,054250.00,A,3355.40286,N,11818.43507,W,0.103,,061021,,,"A*70
"
$GNRMC,054250.10,A,3355.40286,N,11818.43508,W,0.042,,061021,,,"A*7A
"
$GNRMC,054250.20,A,3355.40285,N,11818.43508,W,0.089,,061021,,,"A*7D
"
$GNRMC,054250.30,A,3355.40286,N,11818.43508,W,0.058,,061021,,,"A*73
"
$GNRMC,054250.40,A,3355.40286,N,11818.43509,W,0.088,,061021,,,"A*78
"
$GNRMC,054250.50,A,3355.40286,N,11818.43510,W,0.098,,061021,,,"A*70
"
$GNRMC,054250.60,A,3355.40286,N,11818.43510,W,0.042,,061021,,,"A*74
"
$GNRMC,054250.70,A,3355.40287,N,11818.43509,W,0.052,,061021,,,"A*7D
"
$GNRMC,054250.80,A,3355.40287,N,11818.43509,W,0.076,,061021,,,"A*74
"
$GNRMC,054250.90,A,3355.40287,N,11818.43514,W,0.139,,061021,,,"A*73
"
$GNRMC,054251.00,A,3355.40286,N,11818.43514,W,0.175,,061021,,,"A*72
"
$GNRMC,054251.10,A,3355.40286,N,11818.43512,W,0.153,,061021,,,"A*71
"
$GNRMC,054251.20,A,3355.40287,N,11818.43511,W,0.086,,061021,,,"A*79
"
$GNRMC,054251.30,A,3355.40287,N,11818.43511,W,0.187,,061021,,,"A*78
"
$GNRMC,054251.40,A,3355.40289,N,11818.43510,W,0.231,,061021,,,"A*7E
"
$GNRMC,054251.50,A,3355.40289,N,11818.43512,W,0.144,,061021,,,"A*7C
"
$GNRMC,054251.60,A,3355.40287,N,11818.43515,W,0.129,,061021,,,"A*7D
"
$GNRMC,054251.70,A,3355.40287,N,11818.43517,W,0.150,,061021,,,"A*70
"
$GNRMC,054251.80,A,3355.40287,N,11818.43516,W,0.120,,061021,,,"A*79
"
$GNRMC,054251.90,A,3355.40287,N,11818.43513,W,0.181,,061021,,,"A*76
"
$GNRMC,054252.00,A,3355.40288,N,11818.43511,W,0.202,,061021,,,"A*79
"
$GNRMC,054252.10,A,3355.40288,N,11818.43508,W,0.237,,061021,,,"A*76
"
$GNRMC,054252.20,A,3355.40289,N,11818.43508,W,0.250,,061021,,,"A*75
"
$GNRMC,054252.30,A,3355.40289,N,11818.43510,W,0.140,,061021,,,"A*7F
"
$GNRMC,054252.40,A,3355.40289,N,11818.43508,W,0.204,,061021,,,"A*72
"
$GNRMC,054252.50,A,3355.40291,N,11818.43505,W,0.331,,061021,,,"A*70
"
$GNRMC,054252.60,A,3355.40291,N,11818.43506,W,0.263,,061021,,,"A*76
"
$GNRMC,054252.70,A,3355.40290,N,11818.43507,W,0.052,,061021,,,"A*77
"
$GNRMC,054252.80,A,3355.40291,N,11818.43507,W,0.102,,061021,,,"A*7D
"
$GNRMC,054252.90,A,3355.40291,N,11818.43504,W,0.169,,061021,,,"A*72
"
$GNRMC,054253.00,A,3355.40292,N,11818.43506,W,0.136,,061021,,,"A*71
"
$GNRMC,054253.10,A,3355.40291,N,11818.43505,W,0.094,,061021,,,"A*79
"
$GNRMC,054253.20,A,3355.40291,N,11818.43506,W,0.199,,061021,,,"A*75
"
$GNRMC,054253.30,A,3355.40291,N,11818.43506,W,0.160,,061021,,,"A*72
"
$GNRMC,054253.40,A,3355.40291,N,11818.43504,W,0.044,,061021,,,"A*70
"
$GNRMC,054253.50,A,3355.40291,N,11818.43504,W,0.156,,061021,,,"A*73
"
$GNRMC,054253.60,A,3355.40292,N,11818.43502,W,0.024,,061021,,,"A*71
"
$GNRMC,054253.70,A,3355.40292,N,11818.43501,W,0.111,,061021,,,"A*74
"
$GNRMC,054253.80,A,3355.40292,N,11818.43500,W,0.113,,061021,,,"A*78
"
$GNRMC,054253.90,A,3355.40291,N,11818.43502,W,0.210,,061021,,,"A*78
"
$GNRMC,054254.00,A,3355.40291,N,11818.43502,W,0.259,,061021,,,"A*7B
"
$GNRMC,054254.10,A,3355.40290,N,11818.43502,W,0.213,,061021,,,"A*75
"
$GNRMC,054254.20,A,3355.40290,N,11818.43503,W,0.182,,061021,,,"A*7C
"
$GNRMC,054254.30,A,3355.40290,N,11818.43502,W,0.147,,061021,,,"A*75
"
$GNRMC,054254.40,A,3355.40289,N,11818.43504,W,0.160,,061021,,,"A*79
"
$GNRMC,054254.50,A,3355.40290,N,11818.43504,W,0.118,,061021,,,"A*7F
"
$GNRMC,054254.60,A,3355.40290,N,11818.43504,W,0.094,,061021,,,"A*79
"
$GNRMC,054254.70,A,3355.40290,N,11818.43503,W,0.049,,061021,,,"A*7F
"
$GNRMC,054254.80,A,3355.40289,N,11818.43503,W,0.114,,061021,,,"A*71
"
$GNRMC,054254.90,A,3355.40289,N,11818.43504,W,0.134,,061021,,,"A*75
"
$GNRMC,054255.00,A,3355.40290,N,11818.43503,W,0.038,,061021,,,"A*7F
"
$GNRMC,054255.10,A,3355.40290,N,11818.43502,W,0.041,,061021,,,"A*71
"
$GNRMC,054255.20,A,3355.40290,N,11818.43497,W,0.352,,061021,,,"A*7E
"
$GNRMC,054255.30,A,3355.40290,N,11818.43498,W,0.185,,061021,,,"A*78
"
$GNRMC,054255.40,A,3355.40289,N,11818.43502,W,0.067,,061021,,,"A*78
"
$GNRMC,054255.50,A,3355.40289,N,11818.43504,W,0.155,,061021,,,"A*7F
"
$GNRMC,054255.60,A,3355.40287,N,11818.43507,W,0.336,,061021,,,"A*76
"
$GNRMC,054255.70,A,3355.40286,N,11818.43507,W,0.354,,061021,,,"A*72
"
$GNRMC,054255.80,A,3355.40287,N,11818.43505,W,0.206,,061021,,,"A*78
"
$GNRMC,054255.90,A,3355.40287,N,11818.43510,W,0.259,,061021,,,"A*77
"
$GNRMC,054256.00,A,3355.40286,N,11818.43508,W,0.252,,061021,,,"A*7E
"
$GNRMC,054256.10,A,3355.40286,N,11818.43503,W,0.198,,061021,,,"A*71
"
$GNRMC,054256.20,A,3355.40286,N,11818.43500,W,0.074,,061021,,,"A*72
"
$GNRMC,054256.30,A,3355.40287,N,11818.43498,W,0.026,,061021,,,"A*75
"
$GNRMC,054256.40,A,3355.40286,N,11818.43500,W,0.163,,061021,,,"A*73
"
$GNRMC,054256.50,A,3355.40285,N,11818.43499,W,0.187,,061021,,,"A*7A
"
$GNRMC,054256.60,A,3355.40286,N,11818.43497,W,0.068,,061021,,,"A*74
"
$GNRMC,054256.70,A,3355.40284,N,11818.43498,W,0.220,,061021,,,"A*76
"
$GNRMC,054256.80,A,3355.40285,N,11818.43496,W,0.155,,061021,,,"A*77
"
$GNRMC,054256.90,A,3355.40285,N,11818.43496,W,0.103,,061021,,,"A*75
"
$GNRMC,054257.00,A,3355.40285,N,11818.43497,W,0.085,,061021,,,"A*73
"
$GNRMC,054257.10,A,3355.40285,N,11818.43498,W,0.093,,061021,,,"A*7A
"
$GNRMC,054257.20,A,3355.40284,N,11818.43498,W,0.137,,061021,,,"A*77
"
$GNRMC,054257.30,A,3355.40285,N,11818.43499,W,0.135,,061021,,,"A*74
"
$GNRMC,054257.40,A,3355.40283,N,11818.43500,W,0.171,,061021,,,"A*74
"
$GNRMC,054257.50,A,3355.40284,N,11818.43500,W,0.157,,061021,,,"A*76
"
$GNRMC,054257.60,A,3355.40283,N,11818.43501,W,0.269,,061021,,,"A*7D
"
$GNRMC,054257.70,A,3355.40283,N,11818.43504,W,0.434,,061021,,,"A*77
"
$GNRMC,054257.80,A,3355.40282,N,11818.43504,W,0.406,,061021,,,"A*78
"
$GNRMC,054257.90,A,3355.40282,N,11818.43505,W,0.355,,061021,,,"A*79
"
$GNRMC,054258.00,A,3355.40280,N,11818.43506,W,0.373,,061021,,,"A*7A
"
$GNRMC,054258.10,A,3355.40280,N,11818.43506,W,0.341,,061021,,,"A*7A
"
$GNRMC,054258.20,A,3355.40281,N,11818.43504,W,0.179,,061021,,,"A*73
"
$GNRMC,054258.30,A,3355.40280,N,11818.43503,W,0.122,,061021,,,"A*7A
"
$GNRMC,054258.40,A,3355.40279,N,11818.43504,W,0.266,,061021,,,"A*7F
"
$GNRMC,054258.50,A,3355.40279,N,11818.43502,W,0.197,,061021,,,"A*75
"
$GNRMC,054258.60,A,3355.40279,N,11818.43500,W,0.081,,061021,,,"A*72
"
$GNRMC,054258.70,A,3355.40278,N,11818.43499,W,0.123,,061021,,,"A*7A
"
$GNRMC,054258.80,A,3355.40278,N,11818.43498,W,0.075,,061021,,,"A*76
"
$GNRMC,054258.90,A,3355.40278,N,11818.43497,W,0.092,,061021,,,"A*71
"
$GNRMC,054259.00,A,3355.40277,N,11818.43495,W,0.252,,061021,,,"A*7A
"
$GNRMC,054259.10,A,3355.40277,N,11818.43494,W,0.324,,061021,,,"A*7A
"
$GNRMC,054259.20,A,3355.40278,N,11818.43489,W,0.401,,061021,,,"A*7A
"
$GNRMC,054259.30,A,3355.40277,N,11818.43491,W,0.118,,061021,,,"A*70
"
$GNRMC,054259.40,A,3355.40275,N,11818.43490,W,0.124,,061021,,,"A*7B
"
$GNRMC,054259.50,A,3355.40276,N,11818.43490,W,0.105,,061021,,,"A*7A
"
$GNRMC,054259.60,A,3355.40276,N,11818.43488,W,0.170,,061021,,,"A*72
"
$GNRMC,054259.70,A,3355.40275,N,11818.43489,W,0.097,,061021,,,"A*79
"
$GNRMC,054259.80,A,3355.40275,N,11818.43488,W,0.148,,061021,,,"A*74
"
$GNRMC,054259.90,A,3355.40273,N,11818.43488,W,0.151,,061021,,,"A*7B
"
$GNRMC,054300.00,A,3355.40273,N,11818.43486,W,0.085,,061021,,,"A*79
"
$GNRMC,054300.10,A,3355.40274,N,11818.43486,W,0.097,,061021,,,"A*7C
"
$GNRMC,054300.20,A,3355.40273,N,11818.43489,W,0.130,,061021,,,"A*7B
"
$GNRMC,054300.30,A,3355.40272,N,11818.43490,W,0.139,,061021,,,"A*7A
"
$GNRMC,054300.40,A,3355.40270,N,11818.43490,W,0.190,,061021,,,"A*7C
"
$GNRMC,054300.50,A,3355.40271,N,11818.43489,W,0.032,,061021,,,"A*7D
"
$GNRMC,054300.60,A,3355.40271,N,11818.43490,W,0.019,,061021,,,"A*7F
"
$GNRMC,054300.70,A,3355.40271,N,11818.43487,W,0.184,,061021,,,"A*7D
"
$GNRMC,054300.80,A,3355.40270,N,11818.43490,W,0.062,,061021,,,"A*7C
"
$GNRMC,054300.90,A,3355.40270,N,11818.43491,W,0.099,,061021,,,"A*78
"
$GNRMC,054301.00,A,3355.40271,N,11818.43491,W,0.214,,061021,,,"A*76
"
$GNRMC,054301.10,A,3355.40270,N,11818.43492,W,0.231,,061021,,,"A*72
"
$GNRMC,054301.20,A,3355.40269,N,11818.43496,W,0.072,,061021,,,"A*78
"
$GNRMC,054301.30,A,3355.40270,N,11818.43493,W,0.106,,061021,,,"A*76
"
$GNRMC,054301.40,A,3355.40268,N,11818.43498,W,0.173,,061021,,,"A*71
"
$GNRMC,054301.50,A,3355.40267,N,11818.43499,W,0.370,,061021,,,"A*7F
"
$GNRMC,054301.60,A,3355.40268,N,11818.43497,W,0.291,,061021,,,"A*73
"
$GNRMC,054301.70,A,3355.40266,N,11818.43498,W,0.146,,061021,,,"A*7A
"
$GNRMC,054301.80,A,3355.40266,N,11818.43497,W,0.113,,061021,,,"A*7A
"
$GNRMC,054301.90,A,3355.40266,N,11818.43497,W,0.033,,061021,,,"A*78
"
$GNRMC,054302.00,A,3355.40264,N,11818.43500,W,0.205,,061021,,,"A*78
"
$GNRMC,054302.10,A,3355.40263,N,11818.43502,W,0.267,,061021,,,"A*78
"
$GNRMC,054302.20,A,3355.40263,N,11818.43500,W,0.144,,061021,,,"A*7B
"
$GNRMC,054302.30,A,3355.40264,N,11818.43496,W,0.074,,061021,,,"A*71
"
$GNRMC,054302.40,A,3355.40263,N,11818.43497,W,0.133,,061021,,,"A*72
"
$GNRMC,054302.50,A,3355.40261,N,11818.43502,W,0.412,,061021,,,"A*7A
"
$GNRMC,054302.60,A,3355.40261,N,11818.43502,W,0.386,,061021,,,"A*73
"
$GNRMC,054302.70,A,3355.40261,N,11818.43502,W,0.160,,061021,,,"A*78
"
$GNRMC,054302.80,A,3355.40262,N,11818.43501,W,0.132,,061021,,,"A*70
"
$GNRMC,054302.90,A,3355.40262,N,11818.43499,W,0.221,,061021,,,"A*70
"
$GNRMC,054303.00,A,3355.40262,N,11818.43501,W,0.150,,061021,,,"A*7D
"
$GNRMC,054303.10,A,3355.40261,N,11818.43500,W,0.219,,061021,,,"A*70
"
$GNRMC,054303.20,A,3355.40261,N,11818.43496,W,0.091,,061021,,,"A*7F
"
$GNRMC,054303.30,A,3355.40260,N,11818.43497,W,0.104,,061021,,,"A*73
"
$GNRMC,054303.40,A,3355.40261,N,11818.43498,W,0.022,,061021,,,"A*7F
"
$GNRMC,054303.50,A,3355.40259,N,11818.43500,W,0.163,,061021,,,"A*71
"
$GNRMC,054303.60,A,3355.40256,N,11818.43503,W,0.367,,061021,,,"A*78
"
$GNRMC,054303.70,A,3355.40256,N,11818.43504,W,0.293,,061021,,,"A*74
"
$GNRMC,054303.80,A,3355.40257,N,11818.43503,W,0.214,,061021,,,"A*72
"
$GNRMC,054303.90,A,3355.40258,N,11818.43501,W,0.081,,061021,,,"A*70
"
$GNRMC,054304.00,A,3355.40259,N,11818.43499,W,0.198,,061021,,,"A*76
"
$GNRMC,054304.10,A,3355.40259,N,11818.43500,W,0.178,,061021,,,"A*78
"
$GNRMC,054304.20,A,3355.40258,N,11818.43503,W,0.042,,061021,,,"A*71
"
$GNRMC,054304.30,A,3355.40258,N,11818.43504,W,0.035,,061021,,,"A*77
"
$GNRMC,054304.40,A,3355.40257,N,11818.43504,W,0.068,,061021,,,"A*77
"
$GNRMC,054304.50,A,3355.40257,N,11818.43504,W,0.223,,061021,,,"A*7B
"
$GNRMC,054304.60,A,3355.40258,N,11818.43504,W,0.288,,061021,,,"A*76
"
$GNRMC,054304.70,A,3355.40259,N,11818.43505,W,0.287,,061021,,,"A*78
"
$GNRMC,054304.80,A,3355.40257,N,11818.43508,W,0.181,,061021,,,"A*71
"
$GNRMC,054304.90,A,3355.40255,N,11818.43512,W,0.093,,061021,,,"A*7B
"
$GNRMC,054305.00,A,3355.40254,N,11818.43513,W,0.139,,061021,,,"A*72
"
$GNRMC,054305.10,A,3355.40254,N,11818.43513,W,0.111,,061021,,,"A*79
"
$GNRMC,054305.20,A,3355.40255,N,11818.43513,W,0.062,,061021,,,"A*7E
"
$GNRMC,054305.30,A,3355.40255,N,11818.43511,W,0.064,,061021,,,"A*7B
"
$GNRMC,054305.40,A,3355.40254,N,11818.43513,W,0.110,,061021,,,"A*7D
"
$GNRMC,054305.50,A,3355.40254,N,11818.43516,W,0.081,,061021,,,"A*70
"
$GNRMC,054305.60,A,3355.40254,N,11818.43515,W,0.151,,061021,,,"A*7C
"
$GNRMC,054305.70,A,3355.40254,N,11818.43515,W,0.061,,061021,,,"A*7F
"
$GNRMC,054305.80,A,3355.40253,N,11818.43517,W,0.046,,061021,,,"A*70
"
$GNRMC,054305.90,A,3355.40253,N,11818.43518,W,0.110,,061021,,,"A*7C
"
$GNRMC,054306.00,A,3355.40253,N,11818.43518,W,0.122,,061021,,,"A*77
"
$GNRMC,054306.10,A,3355.40253,N,11818.43517,W,0.047,,061021,,,"A*7B
"
$GNRMC,054306.20,A,3355.40252,N,11818.43517,W,0.162,,061021,,,"A*7F
"
$GNRMC,054306.30,A,3355.40253,N,11818.43517,W,0.165,,061021,,,"A*78
"
$GNRMC,054306.40,A,3355.40251,N,11818.43517,W,0.166,,061021,,,"A*7E
"
